id,name,dealer_type,priority,address,city,state,country,country_code,continent,phone,email,website,latitude,longitude,linkedin_url
1,DJI Authorised Store Westfield shopping city süd Vienna,Retail Store,low,"Allee 123, 2334 Vösendorf",Politischer Bezirk Wien (Stadt),Wien,Austria,AT,Europe,+436642053528,,https://www.djistore.de/,48.109831,16.315413,
2,DJI Authorised Store Na Florenci St Prague,Retail Store,low,"Na Florenci 2139/2, 11000 Nové Město, Czech Republic",Hlavní město Praha,Hlavní město Praha,Czech Republic,CZ,Europe,+420736608962,,,50.088442,14.433624,
3,DJI Authorised Store MyZeil Frankfurt,Retail Store,low,"Zeil 106, 60313 Frankfurt am Main, Germany",Regierungsbezirk Darmstadt,Hessen,Germany,DE,Europe,+4969348777499,,https://www.djistore.de/,50.114989,8.678495,
4,DJI Authorised Store Olympia-Einkaufszentrum Munich,Retail Store,low,"Hanauer Str. 68, 80993 München, Germany",Upper Bavaria,Bayern,Germany,DE,Europe,+498939298767,,https://www.djistore.de/muenchen/,48.1833,11.530037,
5,DJI | Hasselblad Store Westfield Centro Centro Oberhausen,Retail Store,low,"Centroallee 113-114, 46047 Oberhausen, Germany",Reg.-Bez. Düsseldorf,Nordrhein-Westfalen,Germany,DE,Europe,+4920878015469,,https://www.djistore.de/oberhausen/,51.490281,6.876879,
6,DJI Authorised Store Hamburg Germany,Retail Store,low,"Überseeboulevard 7, 20457 Hamburg",Homberg,Rhineland-Palatinate,Germany,DE,Europe,+49 176 89915072,,https://www.djistore.de/,53.546396,9.960957,
7,DJI Authorised Store Amagertorv St Copenhagen,Retail Store,low,"Amagertorv 20, 1160 København, Denmark",Københavns Kommune,Region Hovedstaden,Denmark,DK,Europe,+4553510011,,,55.678678,12.577563,
8,DJI Authorised Store Westfield La Maquinista Barcelona,Retail Store,low,"Centre Comercial Westfield La Maquinista B20 Frente a Barça Store, C/ de Potosí, 2, Planta Baja, 08020 Barcelona,Spain",Barcelona,Cataluna,Spain,ES,Europe,+34933030380,,https://www.djistoreiberia.com/,41.440626,2.197579,
9,ARS Madrid Spain,Retail Store,low,"Av. gran bretaña, s/n, 28916 Leganés, Madrid, 西班牙",Madrid,Madrid,Spain,ES,Europe,34912951154,madrid@djistoreiberia.com,,40.340145,-3.733184,
10,DJI Authorised Store Rue Soufflot St Paris,Retail Store,low,"15 Rue Soufflot, 75005 Paris",Paris,Île-de-France,France,FR,Europe,+33176440108,,https://dji-paris.com/,48.847775,2.341385,
11,DJI Authorised Store Les Terrasses du Port Marseille,Retail Store,low,"Centre commercial Les Terrasses du Port  9 Quai du Lazaret, 13002 Marseille",Marseille,Bouches-du-Rhône,France,FR,Europe,+33 4 12 29 01 30,contact@dji-marseille.com,https://dji-marseille.com/,43.306968,5.364641,
12,DJI Authorised Store Rue du Président Carnot St Lyon,Retail Store,low,"4 Rue du Président Carnot, 69002 Lyon",Lyon,Rhône,France,FR,Europe,+33483970185,,https://dji-lyon.com/,45.762563,4.834552,
13,DJI | Hasselblad Store Westfield White City London,Retail Store,low,"U1063 Westfield London Shopping Centre, London, W12 7GB",City of London,City of London,United Kingdom,GB,Europe,+44 02030986990,whitecity@dji-retail.co.uk,,51.506712,-0.222411,
14,DJI | Hasselblad Store Regent St London,Retail Store,low,"52 Regent St., London W1B 5RL",Greater London,England,United Kingdom,GB,Europe,+44 02033370746,,,51.510259,-0.135353,
15,DJI | Hasselblad Store Corporation St Birmingham,Retail Store,low,"23 New St, Birmingham B2 4RQ",West Midlands,England,United Kingdom,GB,Europe,+441217500145,,https://dji-retail.co.uk/,52.479115,-1.897719,
16,DJI Authorised Store Lækjargata St Reykjavik,Retail Store,low,"Kolagata 1, 101 Reykjavík,Iceland",Reykjavík,Greater Reykjavík,Iceland,IS,Europe,+354 519 4747,,,64.146994,-21.937685,
17,DJI Authorised Store CityLife Shopping District Milano,Retail Store,low,Citylife Shopping District,Milano,Lombardia,Italy,IT,Europe,+39199201010,,https://dji-store.it/,45.478144,9.156893,
18,DJI Authorised Store Centro Commerciale Euroma2 Roma,Retail Store,low,Centro commerciale Euroma2 Viale dell'Oceano Pacifico 83,Roma,Lazio,Italy,IT,Europe,+39199201010,,https://dji-store.it/,41.817377,12.458792,
19,DJI | Hasselblad Store Mall of the Netherlands Leidschendam,Retail Store,low,"jasmijn 11, 2262 AN Leidschendam, Netherlands",Pijnacker-Nootdorp,Zuid-Holland,Netherlands,NL,Europe,+31624103172,,https://dji-experiencestore.com/,52.088752,4.38233,
20,DJI Authorised Store Oslo Norway,Retail Store,low,"Karl Johans gt. 8, Oslo, Norway",Oslo,Oslo,Norway,NO,Europe,+45 27 60 60 60,,,59.911664,10.746966,
21,DJI Authorised Store Stary Browar Poznan,Retail Store,low,"Półwiejska 42,61-888 Poznan",Poznań,Greater Poland,Poland,PL,Europe,+48734734920,,,52.400922,16.928014,
22,DJI Authorised Store Galeria Katowicka Katowice,Retail Store,low,"3 Maj 30, 40-097 Katowice",Katowice,Silesia,Poland,PL,Europe,+48734734920,,,50.259376,19.017513,
23,DJI Authorised Store Marynarska St Warszawa,Retail Store,low,"Marynarska 15, 02-674 Warsaw",Warszawa,Mazovia,Poland,PL,Europe,+48734734920,,,52.178248,20.997613,
24,DJI Authorised Store Drottninggatan St Stockholm,Retail Store,low,"Drottninggatan 57, 111 21 Stockholm",Stockholm,Stockholm,Sweden,SE,Europe,+46760001060,,,59.333849,18.059944,
25,DJI Authorised Store Midtown Guadalajara,Retail Store,low,"PLAZA MIDTOWN JALISCO, Av Adolfo López Mateos Nte 2405-2º NIVEL, Local 89, Italia Providencia, 44648 Guadalajara, Jal.",Guadalajara,Jalisco,Mexico,MX,North America,+523331136049,,,20.694624,-103.375786,
26,DJI Authorised Store Town Square Metepec,Retail Store,low,"Plan de Ayutla 102b, Residencial la Providencia, 52177 San Francisco Coaxusco, Méx., México",Metepec,México,Mexico,MX,North America,+527226889171,,,19.267532,-99.604953,
27,DJI Authorised Store Plaza Fiesta San Agustín Monterrey,Retail Store,low,"Av Batallón de San Patricio 1000, Monterrey Plaza Fiesta San Agustín, Zona San Agustín, 66260 San Pedro Garza García, N.L.",San Pedro Garza García,Nuevo León,Mexico,MX,North America,+528113390317,,,25.649462,-100.336355,
28,DJI Authorised Store Mitikah CDMX,Retail Store,low,"Cto Interior Avenida Río Churubusco 601 Local-N 2-24, Xoco, Benito Juárez, 03330 CDMX",Benito Juárez,Ciudad de México,Mexico,MX,North America,+525517155969,,,19.360181,-99.169108,
29,DJI Authorised Store Santa Fe CDMX,Retail Store,low,"Centro Comercial Patio Santa Fe Local SC30, Vasco de Quiroga 200, Zedec Sta Fé, Álvaro Obregón, 01210 Ciudad de México, CDMX",Álvaro Obregón,Ciudad de México,Mexico,MX,North America,+525550863052,,,19.377328,-99.255116,
30,DJI Authorised Store ARTZ CDMX,Retail Store,low,"ARTZ Pedregal, Perif. Sur 3720, Local 230A, Jardines del Pedregal, Álvaro Obregón, 01900 CDMX",Álvaro Obregón,Ciudad de México,Mexico,MX,North America,+525590525180,,,19.314055,-99.218812,
31,DJI Authorised Store Landmark Guadalajara,Retail Store,low,"Plaza Corporativa, P.º de los Virreyes 45, Puerta de Hierro, 45116 Zapopan, Jal., México",Guadalajara,Jalisco,Mexico,MX,North America,+523338358868,,,20.707649,-103.412909,
32,DJI Store - Multiplaza Pacific Panama,Retail Store,low,"Mall Multiplaza Pacific, Local B321-2, Vía Israel, Panamá",Panama,Panama,Panama,PA,North America,(507)  307-5831,,,8.985604,-79.510894,
33,DJI Authorised Store Westfield Sydney,Retail Store,low,"Shop 27-28G/188 Pitt St, Sydney NSW 2000",SYDNEY STREETS,New South Wales,Australia,AU,Oceania,0291607375,,,-33.870303,151.207987,
34,DJI Authorised Store Westfield Carousel,Retail Store,low,"Shop 1054/1382 Albany Hwy, Cannington WA 6107",Western Australia,Western Australia,Australia,AU,Oceania,0870782100,,,-32.018108,115.93715,
35,DJI Authorised Store Westfield Bondi,Retail Store,low,"Shop 3022, Level 3/500 Oxford St, Bondi Junction NSW 2022",BONDI,New South Wales,Australia,AU,Oceania,0283557852,,,-33.892547,151.249806,
36,DJI Authorised Store Melbourne Central,Retail Store,low,"Level 1/211 La Trobe St, Melbourne VIC 3000",MELBOURNE CITY,Victoria,Australia,AU,Oceania,0392887879,,,-37.810232,144.963235,
37,DJI Authorised Store Westfield Carindale,Retail Store,low,"Westfield Chermside Corner Gympie &, Shop 253B Level 1 Hamilton Rd, Chermside QLD 4032",BRIS CITY CNTRY,Queensland,Australia,AU,Oceania,0870782100,,,-27.502931,153.101983,
38,DJI Authorised Store Chadstone,Retail Store,low,"1341 Dandenong Road, Chadstone, Victoria, 3148, Australia",MELBOURNE CITY,Victoria,Australia,AU,Oceania,0283557852,,,-37.887085,145.081528,
39,DJI Authorised Store Westfield Chermside,Retail Store,low,"Westfield Chermside Corner Gympie &, Shop 253B Level 1 Hamilton Rd, Chermside QLD 4032",BRIS CITY CNTRY,Queensland,Australia,AU,Oceania,0730777437,,,-27.383468,153.03188,
40,DJI Authorised Store Westfield Fountain Gate,Retail Store,low,"Westfield Fountain Gate, Shop 1212/25-55 Overland Dr, Narre Warren VIC 3805",Victoria,Victoria,Australia,AU,Oceania,0392887890,,,-38.01699,145.30539,
41,DJI Authorised Store Mall Open Plaza Kennedy,Retail Store,low,"Av. Pdte. Kennedy 5601, L5, 7560356 Las Condes, Región Metropolitana, Chile",Las Condes,Region Metropolitana de Santiago,Chile,CL,South America,+56934006988,,,-33.400194,-70.575272,
42,DJI Authorised Store Mall Plaza Calama,Retail Store,low,"Av. Balmaceda 3242 Local B-256 / 260, 1394371 Calama, Antofagasta, Chile",Calama,Antofagasta,Chile,CL,South America,+56927498318,,,-22.448647,-68.921473,
43,DJI Authorised Store Mall Marina Viña del Mar,Retail Store,low,"Boulevard Mall Marina - 14 Nte. 821, Local 27, 2530899 Viña del Mar, Valparaíso, Chile",Viña del Mar,Valparaiso,Chile,CL,South America,+56933530840,,,-33.009483,-71.546978,
44,DJI Authorised Store C.C.Jockey Plaza Lima,Retail Store,low,"Av. Javier Prado este N° 4200 Toda CRL - 203 urb, Santiago de Surco",Lima,Lima,Peru,PE,South America,+51 986 996 017,,https://dji.pe/,-12.086728,-76.978917,
45,DJI Authorised Store Plaza San Miguel Lima,Retail Store,low,"Av. la Marina 2000, San Miguel 15088, San Miguel 15086，秘鲁",Lima,Lima,Peru,PE,South America,908844066,,,-12.07595,-77.082811,
46,DJI大疆授权体验店(广州正佳广场专区),Retail Store,low,广东省广州市天河区天河路228号正佳广场4楼DJI大疆创新,广州市,广东省,China,CN,Asia,"17316834905,020-38330588",,,23.132458,113.327023,
47,DJI大疆授权体验店(江门大融城),Retail Store,low,广东省江门市蓬江区白石大道166号汇悦城1F003号,江门市,广东省,China,CN,Asia,17727026003,,,22.611639,113.083418,
48,DJI大疆授权专卖店(郑州赛博数码广场店),Retail Store,low,河南省郑州市金水区文化路68号赛博数码港M106号,郑州市,河南省,China,CN,Asia,17629380487,1837222067@qq.com,,34.80596,113.67282,
49,DJI大疆旗舰店(上海新天地),Retail Store,low,上海市黄浦区马当路119号1楼103、104 2楼202、203,上海市,上海市,China,CN,Asia,021-53882588,,,31.216872,121.474942,
50,DJI大疆授权体验店(广州丽影广场),Retail Store,low,广州市海珠区赤岗街道珠影社区新港中路356号一楼EL1-016丽影广场,广州市,广东省,China,CN,Asia,"020-80923474,15302387730",1096285042@qq.com,,23.1015,113.32851,
51,DJI大疆授权体验店(深圳龙岗万达),Retail Store,low,深圳市龙岗区华南二道1号万达广场(华南城店)1F1031A,深圳市,广东省,China,CN,Asia,"0755-28283830,18138849130",,,22.67477,114.13113,
52,DJI大疆授权体验店(昆明五华吾悦),Retail Store,low,云南省昆明市五华区王筇路五华吾悦广场1楼1037-1,昆明市,云南省,China,CN,Asia,18213043671,,,25.095607,102.664982,
53,DJI大疆授权体验店(昆明七彩云南第壹城),Retail Store,low,朝云街七彩云南第壹城A1-1F016号商铺,昆明市,云南省,China,CN,Asia,13330528439,543070260@qq.com,,24.883807,102.83241,
54,DJI大疆授权体验店(重庆SKLP),Retail Store,low,重庆市渝北区龙溪街道红锦大道89号新光天地商场B区6层06041-2号,重庆市,重庆市,China,CN,Asia,023-67184172,,,29.594901,106.521397,
55,DJI大疆授权体验店(青岛新城吾悦),Retail Store,low,青岛市黄岛区滨海大道2888号新城吾悦广场A3幢1056-2-2铺位,青岛市,山东省,China,CN,Asia,17667663932,17860717370@139.com,,35.929228,120.163996,
56,DJI大疆授权体验店(济宁万象汇),Retail Store,low,济宁市高新区海川路77号万象汇一楼L165D,济宁市,山东省,China,CN,Asia,19053718117,13854743686@163.com,,35.42,116.7,
57,DJI大疆授权体验店(呼和浩特凯德),Retail Store,low,呼和浩特市玉泉区鄂尔多斯大街金宇新天地A座凯德广场一层01-02B商铺,呼和浩特市,内蒙古自治区,China,CN,Asia,13384715867,564433975@qq.com,,40.798179,111.679627,
58,DJI大疆专区SIS店(哈尔滨船舶电子城弘瑞丰店),Retail Store,low,南通大街288号,哈尔滨市,黑龙江省,China,CN,Asia,18646005777,,,45.775215,126.666791,
59,DJI大疆授权体验店(南通金鹰),Retail Store,low,江苏省南通市崇川区工农路57号圆融金鹰国际购物中心1楼F1017-0铺位大疆,南通市,江苏省,China,CN,Asia,17768681826,zhangqi1@feishangkeji.cn,,32.007151,120.879634,
60,DJI大疆授权体验店(长春万象城),Retail Store,low,吉林省长春市南关区人民大街3388号华润万象城负一楼B148号,长春市,吉林省,China,CN,Asia,18043940182,,,43.879137,125.325857,
61,DJI大疆授权体验店(西安DT51),Retail Store,low,西安市雁塔区高新区唐延路69号西安DT51商场D1011,西安市,陕西省,China,CN,Asia,18091870631,,,34.2,108.89,
62,DJI大疆授权专卖店(合肥庐州意库店),Retail Store,low,安徽省合肥市庐阳区杏林街道庐州意库文创园7栋DJI大疆无人机,合肥市,安徽省,China,CN,Asia,15212443213,1715544833@qq.com,,31.90114,117.28451,
63,DJI大疆授权体验店(昆明恒隆广场),Retail Store,low,云南省昆明市盘龙区东风东路21号恒隆广场5楼L512商铺,昆明市,云南省,China,CN,Asia,0871-65129339,,,25.036925,102.722721,
64,DJI大疆专区SIS店(济南经二路店),Retail Store,low,经二路213号,济南市,山东省,China,CN,Asia,15168806708,,,36.664711,116.991769,
65,DJI大疆授权体验店(南昌万象城),Retail Store,low,江西省南昌市红谷滩区学府大道388号万象城商业中心负一楼B143商铺,南昌市,江西省,China,CN,Asia,13018935832,,,28.679319,115.960931,
66,DJI大疆授权体验店(上海凯德晶萃),Retail Store,low,上海市黄浦区徐家汇路 268 号01层 29 号,上海市,上海市,China,CN,Asia,021-53828707,fhkaidejingcui@fhql.co,,31.22,121.48,
67,DJI大疆授权体验店(大连罗斯福),Retail Store,low,"大连市沙河口区西安路139号罗斯
福广场一楼13010",大连市,辽宁省,China,CN,Asia,19818934674,,,38.913943,121.586759,
68,DJI大疆授权体验店(天津海信广场),Retail Store,low,天津市和平区海信广场B1- 002铺位,天津市,天津市,China,CN,Asia,(022)231982017,,,39.118191,117.218121,
69,DJI大疆授权体验店(大庆萨尔图万达),Retail Store,low,大庆市萨尔图区东风路15号万达广场一层（1035铺）,大庆市,黑龙江省,China,CN,Asia,18546665256,1241378827@qq.com,,46.594554,125.094478,
70,DJI大疆授权专卖店(重庆长嘉汇),Retail Store,low,重庆市南岸区长嘉汇购物公园观景平台L4-15B,重庆市,重庆市,China,CN,Asia,18166562152,954860544@qq.com,,29.583704,106.593234,
71,DJI大疆授权体验店(襄阳民发广场),Retail Store,low,湖北省襄阳市樊城区汉江街道长虹路CH1013A,襄阳市,湖北省,China,CN,Asia,19907271292,wanghu@mc2.cn,,32.05,112.14,
72,DJI大疆授权体验店(荆门漳河万达),Retail Store,low,湖北省荆门市漳河新区象山大道南端38号万达广场L1041铺位,荆门市,湖北省,China,CN,Asia,19171518737,jiangfangyu@mc2.cn,,30.99,112.19,
73,DJI大疆授权体验店(成都太古里),Retail Store,low,四川省成都市锦江区中纱帽街8号成都太古里负1层,成都市,四川省,China,CN,Asia,"19950199190,028-85570750",,,30.653231,104.083493,
74,DJI大疆专区专柜(杭州市西溪颐高店),Retail Store,low,浙江省杭州市西湖区文三路108号西溪数码港A106-B112,杭州市,浙江省,China,CN,Asia,13958105665,,,30.284238,120.150855,
75,DJI大疆授权体验店(遵义吾悦广场),Retail Store,low,贵州省遵义市红花岗区共青一路吾悦广场一楼1008,遵义市,贵州省,China,CN,Asia,0851-28678839,,,27.650594,106.885446,
76,DJI大疆授权体验店(南昌大悦城),Retail Store,low,江西省南昌市西湖区抚生南路666号南昌大说城购物中心L1-17号商铺,南昌市,江西省,China,CN,Asia,17679293602,1750325694@qq.com,,28.639428,115.868118,
77,DJI大疆授权体验店(北京龙湖大兴天街),Retail Store,low,北京市龙湖大兴天街A栋-1F-01aa,北京市,北京市,China,CN,Asia,15321905938,136281968@qq.com,,39.69,116.33,
78,DJI大疆专区SIS店(西安行政中心店),Retail Store,low,陕西省西安市未央区凤城八路保亿隆基中心B座103号,西安市,陕西省,China,CN,Asia,"029-86102905,18909218387",2985480189@qq.com,,34.34668,108.94949,
79,DJI大疆授权体验店(广州凯德乐峰),Retail Store,low,广东省广州市海珠区工业大道北106-108号乐峰广场B1-S31/S32,广州市,广东省,China,CN,Asia,13316111813；020-34479460,,,23.054782,113.762701,
80,DJI大疆授权体验店(上海长风大悦城),Retail Store,low,上海市普陀区大渡河路168弄136号L1-61P铺,上海市,上海市,China,CN,Asia,52562967,changfengdayuecheng@fhql.com,,31.23,121.4,
81,DJI大疆授权体验店(青岛城阳万象汇),Retail Store,low,山东省青岛市城阳区正阳中路157号城阳万象汇L119号,青岛市,山东省,China,CN,Asia,15965576862,,,36.079969,120.37972,
82,DJI大疆授权体验店(淮安万象城),Retail Store,low,江苏省淮安市清江浦区淮海东路辅路淮安万象城F1  L128 店铺,淮安市,江苏省,China,CN,Asia,"17368110297,0517-89003889",24465836@qq.com,,33.6,119.04,
83,DJI大疆授权体验店(咸阳沣西吾悦广场),Retail Store,low,陕西省咸阳市秦都区钓台街道统一西路,咸阳市,陕西省,China,CN,Asia,17782726195,17782726195@189.com,,34.308152,108.736998,
84,DJI大疆授权体验店(上海中庚漫游城),Retail Store,low,上海市闵行区闵虹路8号L1-123.124铺,上海市,上海市,China,CN,Asia,17521303061,zhgmanyoucheng@fhql.com,,31.14,121.4,
85,DJI大疆授权体验店(苏州常熟印象城),Retail Store,low,江苏省常熟市海虞南路88号常熟印象城1楼01-04,苏州市,江苏省,China,CN,Asia,18936109238,djicsyxc@163.com,,31.649253,120.759764,
86,DJI大疆授权体验店(杭州西溪印象城),Retail Store,low,杭州市余杭区五常大道一号西溪印象城一期L160-161,杭州市,浙江省,China,CN,Asia,0571-85857197,,,30.247529,120.051406,
87,DJI大疆授权体验店(西安长乐天街),Retail Store,low,西安市新城区万寿北路58号龙湖长乐天街B馆-1F-23大疆,西安市,陕西省,China,CN,Asia,13389289059,13389289059@189.cn,,34.28,109.01,
88,DJI大疆授权体验店(上海虹口凯德),Retail Store,low,上海市虹口区西江湾路388号L1-11铺,上海市,上海市,China,CN,Asia,66837710,fhshhongkoukaide@fhql.com,,31.28,121.48,
89,DJI大疆授权体验店(太原万象城),Retail Store,low,山西省太原市万柏林区长兴路5号华润万象城东门L140C,太原市,山西省,China,CN,Asia,18534000705,,,37.813086,112.536036,
90,DJI大疆授权体验店(西安中大国际),Retail Store,low,西安市雁塔区甘家寨中大国际负1楼,西安市,陕西省,China,CN,Asia,029-89282693/13389239530,,,34.221901,108.896792,
91,DJI大疆授权体验店(大连亿合城开发区),Retail Store,low,辽宁省大连市金州区马桥子街道金马路208号亿合城一层KYF1011,大连市,辽宁省,China,CN,Asia,13654117500,,,39.04826,121.78184,
92,DJI大疆授权体验店(惠州大亚湾万达),Retail Store,low,广东省惠州市惠阳区龙海二路38号万达广场1楼1076铺,惠州市,广东省,China,CN,Asia,18028455800,18583101000@163.com,,22.761648,114.486345,
93,DJI大疆授权体验店(大连恒隆),Retail Store,low,"辽宁省大连市西岗区五四路66号
恒隆广场B1层B09店铺",大连市,辽宁省,China,CN,Asia,15242522665,,,38.906257,121.609536,
94,DJI大疆授权体验店(苏州万象天地),Retail Store,low,江苏省苏州市姑苏区上塘街290号苏州万象天地1楼L125N大疆,苏州市,江苏省,China,CN,Asia,17706211995,lulu.li@xgngroup.cn,,31.310681,120.598741,
95,DJI大疆授权体验店(南京江北虹悦城),Retail Store,low,江苏省南京市浦口区龙华路1号江北虹悦城1F-28,南京市,江苏省,China,CN,Asia,025-58195996/18120147650,,,32.066948,118.640049,
96,DJI大疆专区SIS店(绍兴市颐高数码店),Retail Store,low,绍兴越城区二环北路颐高数码广场负一楼D1-A,绍兴市,浙江省,China,CN,Asia,13777336422/18057550007,,,30.0262,120.577274,
97,DJI大疆授权体验店(温州万象城),Retail Store,low,瓯海区温瑞大道999号华润万象城5楼L523a,温州市,浙江省,China,CN,Asia,0577-86007616,,,27.953454,120.684099,
98,DJI大疆授权专卖店(益阳桃花仑西路店),Retail Store,low,湖南省益阳市赫山区桃花仑西路DJI大疆（益阳市教育局旁）,益阳市,湖南省,China,CN,Asia,19152281888,121390255@qq.com,,28.586515,112.353394,
99,DJI大疆授权体验店(绍兴上虞万和城),Retail Store,low,浙江省绍兴市上虞区市民大道688号万和城1F-033铺位,绍兴市,浙江省,China,CN,Asia,17706756017,chenyihan@mc2.cn,,30.04,120.88,
100,DJI大疆哈苏概念店(杭州大厦),Retail Store,low,浙江省杭州市拱墅区华浙广场2、3号杭州大厦D1楼D122大疆哈苏专柜,杭州市,浙江省,China,CN,Asia,0571-85857815,,,30.27281,120.161483,
101,DJI大疆授权体验店(太原吾悦广场),Retail Store,low,山西省太原市万柏林区千峰北路吾悦广场L1-1015,太原市,山西省,China,CN,Asia,19035110367,,,37.877973,112.526132,
102,DJI大疆授权体验店(宿迁吾悦广场),Retail Store,low,江苏省宿迁市宿城区青海湖西路222号宿迁宿城吾悦广场F1 大疆店铺,宿迁市,江苏省,China,CN,Asia,"0527-83699373,18012116786",1062169793@qq.com,,33.9632,118.2951,
103,DJI大疆授权体验店(北京西北旺万象汇),Retail Store,low,北京市海淀区马连洼街道西北旺万象汇1层L130,北京市,北京市,China,CN,Asia,18001053623,,,40.055659,116.265248,
104,DJI大疆授权体验店(合肥瑶海天地),Retail Store,low,安徽省合肥市瑶海区铜陵路街道长江东路YH202211号B地块、C地块-L114铺,合肥市,安徽省,China,CN,Asia,13645191195,heyinghua@feishangkeji.cn,,31.869042,117.330557,
105,DJI大疆授权体验店(青岛融创茂),Retail Store,low,山东省青岛市黄岛区滨海大道青岛融创茂1楼1009A,青岛市,山东省,China,CN,Asia,18661760682,2582987782@qq.com,,35.90509,120.100929,
106,DJI大疆授权体验店(黔东南凯里国贸),Retail Store,low,贵州省黔东南苗族侗族自治州凯里市北京西路21号国贸购物中心1F,黔东南苗族侗族自治州,贵州省,China,CN,Asia,18985619016,2641080493@qq.com,,26.580681,107.973153,
107,DJI大疆专区SIS店(大同市云中路店),Retail Store,low,山西省大同市平城区云中路849号大疆创新专营店,大同市,山西省,China,CN,Asia,13934455223,,,40.083567,113.289031,
108,DJI大疆授权体验店(孝感万达),Retail Store,low,湖北省孝感市孝南区孝武大道路特1号孝感星河天街万达广场1F层1008号商铺,孝感市,湖北省,China,CN,Asia,13135640201,504982102@qq.com,,30.901226,113.956413,
109,DJI大疆授权体验店(沈阳皇姑万象汇),Retail Store,low,辽宁省沈阳市皇姑区崇山路18号皇姑万象汇 一楼158,沈阳市,辽宁省,China,CN,Asia,15734011889,,,41.795608,123.372968,
110,DJI大疆授权体验店(宜昌国贸),Retail Store,low,湖北省宜昌市西陵区东山大道106号国贸商场北一楼1026号DJI大疆,宜昌市,湖北省,China,CN,Asia,"0717-6216188,17764250668",,,30.71421,111.2908,
111,DJI大疆专区专柜(开封省府西街店),Retail Store,low,河南省开封市鼓楼区省府西街鼓楼区检察院对面DJI大疆开封市授权专区,开封市,河南省,China,CN,Asia,13903780447,crystalsky77@163.com,,34.4746,114.2046,
112,DJI大疆授权体验店(上海世博天地),Retail Store,low,上钢新村街道世博大道1467号的世博天地C地上 一 层L104号,上海市,上海市,China,CN,Asia,18917072050,shibotiandi@fhql.com,,31.19,121.5,
113,DJI大疆授权体验店(西宁海湖万达),Retail Store,low,青海省西宁市城西区广场路1号海湖万达广场层1031号,西宁市,青海省,China,CN,Asia,19997487750,19997487750@189.com,,36.642644,101.715863,
114,DJI大疆授权体验店(武汉壹方天地),Retail Store,low,湖北省武汉市江岸区武汉天地壹方南馆购物中心2F-20号,武汉市,湖北省,China,CN,Asia,18162737107；027-82357789,,,30.552535,114.293635,
115,DJI大疆专区SIS店(长沙科佳摄影城店),Retail Store,low,湖南省长沙市芙蓉区解放东路46号湖南摄影城（科佳摄影城）1楼1号-2号,长沙市,湖南省,China,CN,Asia,"15073177769,82295958",nimeijia@126.com,,28.191108,113.009392,
116,DJI大疆授权体验店(衡阳蒸湘万达),Retail Store,low,湖南省衡阳市蒸湘区幸福路联合街道22号一层1059号铺,衡阳市,湖南省,China,CN,Asia,19188902702,xiejinsheng@mc2.cn,,26.89,112.6,
117,DJI大疆授权体验店(郑州二七万达),Retail Store,low,河南省郑州市二七区大学南路万达广场1楼DJI大疆1053号,郑州市,河南省,China,CN,Asia,17788165165,3202867626@qq.com,,34.724319,113.649102,
118,DJI大疆授权体验店(唐山路南万达),Retail Store,low,新华东道100号万达广场一层1F-1035-B号,唐山市,河北省,China,CN,Asia,15032595051,,,39.624244,90,
119,DJI大疆授权体验店(宜兴八佰伴),Retail Store,low,江苏省无锡市宜兴市解放东路288号L1013,无锡市,江苏省,China,CN,Asia,18961593790,18961593790@qq.com,,31.358368,119.843468,
120,DJI大疆授权体验店(南昌龙湖天街),Retail Store,low,江西省南昌市青山湖区解放东路1999号龙湖天街A1F29，A1F30aa，A1F30bb号商铺,南昌市,江西省,China,CN,Asia,18379119805,2235721862@qq.com,,28.652322,115.964207,
121,DJI大疆授权体验专区(长治万达),Retail Store,low,山西省长治市潞州区英雄北路222号万达广场1F-1027中空,长治市,山西省,China,CN,Asia,13653668310,13653668310@139.com,,36.224862,113.134913,
122,DJI大疆授权专卖店(重庆杨家坪步行街),Retail Store,low,重庆市九龙坡区杨家坪街道西郊路1号1-14，1-15号,重庆市,重庆市,China,CN,Asia,15523455238,646438223@qq.com,,29.551158,106.51055,
123,DJI大疆授权体验店(滨州万达),Retail Store,low,山东省滨州市滨城区黄河十二路890号万达广场一层YX-HD-ZT-001号,滨州市,山东省,China,CN,Asia,17661173415,,,37.38162,118.02441,
124,DJI大疆授权体验店(重庆江北国际机场),Retail Store,low,重庆江北国际机场T3A航站楼出发大厅T3A-L410、L411号（3F值机岛后）,重庆市,重庆市,China,CN,Asia,17784239951,794856239@qq.com,,29.709206,106.654248,
125,DJI大疆专区SIS店(深圳华强北电子世界影客),Retail Store,low,深圳市福田区华强北 新华强电子二店3楼Q3B202,深圳市,广东省,China,CN,Asia,13631630571,,,22.548231,114.092891,
126,DJI大疆授权体验店(上海百联又一城),Retail Store,low,上海市杨浦区淞沪路8号B1-03铺位,上海市,上海市,China,CN,Asia,15097766392,503388639@qq.com,,31.31,121.52,
127,DJI大疆授权体验店(海口友谊南海城),Retail Store,low,海南省海口市龙华区南海大道友谊南海城030号商铺大疆体验店,海口市,海南省,China,CN,Asia,18189776075,,,19.996374,110.30418,
128,DJI大疆授权专卖店(广州友谊商店国金店),Retail Store,low,广州市天河区猎德街道珠江西路5号广州友谊商场国金店M层大疆体验专区,广州市,广东省,China,CN,Asia,18928743156,yqingfei@gzsuomeng.com,,23.118525,113.322689,
129,DJI大疆授权体验店(沈阳京东MALL),Retail Store,low,辽宁省沈阳市大东区滂江街28号大东区龙之梦京东MALL,沈阳市,辽宁省,China,CN,Asia,13940460865,1524051370@qq.com,,41.8,123.4841,
130,DJI大疆授权体验店(广州白云万象汇),Retail Store,low,广东省广州市白云区机场路1399号百信广场西区一楼L1007DJI大疆创新,广州市,广东省,China,CN,Asia,"19102064145,020-36487549",,,23.193398,113.262088,
131,DJI大疆授权体验店(杭州大悦城),Retail Store,low,浙江省杭州市拱墅区隐秀路1号大悦城1楼L1-25&26铺位,杭州市,浙江省,China,CN,Asia,(0571) 8873 3820,,,30.296287,120.122557,
132,DJI大疆授权体验店(深圳PAMALL),Retail Store,low,深圳市福田区益田路5033号PA MALL 平安金融中心NLM02,深圳市,广东省,China,CN,Asia,"0755-82522909,18123928727",hezhuowei@hengweixin.com.cn,,22.53318,114.05564,
133,DJI大疆授权体验店(长沙松雅湖吾悦广场),Retail Store,low,湖南省长沙县望仙东路489号吾悦广场5栋149室1063号,长沙市,湖南省,China,CN,Asia,"0731-85215330,18163769107",1307990998@qq.com,,28.257949,113.108084,
134,DJI大疆授权体验店(北京通州万达),Retail Store,low,北京市通州区万达广场1层1003A号DJI大疆,北京市,北京市,China,CN,Asia,15321932905,,,39.906887,116.642803,
135,DJI大疆专区SIS店(西安和平门店),Retail Store,low,陕西省西安市碑林区雁塔北路78号西光摄影器材,西安市,陕西省,China,CN,Asia,15389188742,,,34.248127,108.963586,
136,DJI大疆授权体验店(丽水银泰城),Retail Store,low,浙江省丽水市莲都区银泰城L1007,丽水市,浙江省,China,CN,Asia,0578-2121601,,,28.438154,119.926141,
137,DJI大疆授权体验店(温州印象城),Retail Store,low,浙江省温州市鹿城区南汇街道府东路333号温州印象城商业中心D29-L1-25号,温州市,浙江省,China,CN,Asia,0577-86081787,,,31.06048,121.22252,
138,DJI大疆授权体验店(广州番禺奥园),Retail Store,low,广东省广州市番禺区福德路281号奥园广场106-05号,广州市,广东省,China,CN,Asia,18126758720,877085104@qq.com,,22.93,113.3642,
139,DJI大疆授权体验店(佛山岭南站),Retail Store,low,广东省佛山市禅城区祖庙街道祖庙路29号岭南站一楼013B号大疆无人机授权体验店,佛山市,广东省,China,CN,Asia,13380227750,,,23.107877,113.148242,
140,DJI大疆授权体验店(太原公元时代城),Retail Store,low,山西省太原市万柏林区迎泽西大街120号公元时代城购物中心F1-017,太原市,山西省,China,CN,Asia,15803417701,623416592@qq.com,,37.862736,112.515033,
141,DJI大疆授权体验店(西宁王府井百货中心),Retail Store,low,青海省西宁市城中区西大街42号西宁王府井百货中心店B馆B1-005,西宁市,青海省,China,CN,Asia,18195616683,,,36.62768,36.62768,
142,DJI大疆授权体验店(沈阳长白万象汇),Retail Store,low,辽宁省沈阳市和平区长白北路199号一楼L137,沈阳市,辽宁省,China,CN,Asia,15712478801,,,41.747575,123.394783,
143,DJI大疆授权体验店(益阳万达广场),Retail Store,low,湖南省益阳市赫山区益阳大道与罗溪路交汇处益阳赫山万达广场1A026,益阳市,湖南省,China,CN,Asia,"0737-6670605,17363765255",1027369709@qq.com,,28.571165,112.380989,
144,DJI大疆授权专卖店(北京首钢园店),Retail Store,low,北京市石景山区五一剧场路1号院2号楼B2座1层DJI大疆店,北京市,北京市,China,CN,Asia,13601248598,anhq@163.com,,39.925294,116.162634,
145,DJI大疆授权体验店(无锡八佰伴中心),Retail Store,low,江苏省无锡市锡山区锡沪路东亭西段1号八佰伴中心一楼1008号,无锡市,江苏省,China,CN,Asia,13382209197,,,31.572906,120.30274,
146,DJI大疆授权体验店(曲靖万达),Retail Store,low,云南省曲靖开发区翠峰路83号万达广场【1A】层【1A016】号,曲靖市,云南省,China,CN,Asia,0874-3956339,,,25.519474,103.757598,
147,DJI大疆授权体验店(自贡华商爱琴海),Retail Store,low,四川省自贡市自流井区华商北路155号F1-F1S003,自贡市,四川省,China,CN,Asia,19182822512,19182822512@189.cn,,29.32,104.77,
148,DJI大疆授权专卖店(兰州市天水南路店),Retail Store,low,天水南路216号,兰州市,甘肃省,China,CN,Asia,18198017730,,,36.043259,103.85428,
149,DJI大疆授权体验店(潍坊泰华城),Retail Store,low,"山东省潍坊市奎文区东风东街360号泰华城新天地一层XL157b,XL158DJL大疆",潍坊市,山东省,China,CN,Asia,18005366321/15589657586,,,36.704352,119.105551,
150,DJI大疆授权体验店(周口万顺达),Retail Store,low,河南省周口市川汇区七一路五一路交叉口万顺达一楼南门入口,周口市,河南省,China,CN,Asia,15138335910,,,33.623786,114.655002,
151,DJI大疆授权体验店(成都万象城),Retail Store,low,四川省成都市成华区双庆路8号成都华润万象城C馆一楼165号,成都市,四川省,China,CN,Asia,"15387641600,028-84451337",,,30.656346,104.10325,
152,DJI大疆授权体验店(大理泰业国际广场),Retail Store,low,云南省大理市建设路21号昆百大泰业城1楼中庭服务台旁A136号铺,大理白族自治州,云南省,China,CN,Asia,19116190572,,,25.591842,100.23271,
153,DJI大疆授权体验店(福州中骏世界城),Retail Store,low,福建省福州市仓山区利民路11号中骏世界城一楼M122单元商铺,福州市,福建省,China,CN,Asia,"13007169978,0591-87502126",502304708@qq.com,,26.034763,119.31735,
154,DJI大疆专区专柜(昆明佰腾数码广场新世界店),Retail Store,low,云南省昆明市佰腾数码广场A座105,昆明市,云南省,China,CN,Asia,13759558828,,,25.057562,102.70609,
155,DJI大疆授权体验店(广州天河领展),Retail Store,low,广州市天河区马场路36号领展广场一楼120-1a,广州市,广东省,China,CN,Asia,"15360546530,(020)83629214",huangfeng@hengweixin.com.cn,,23.129783,113.350619,
156,DJI大疆授权体验店(杭州亚奥万象天地),Retail Store,low,浙江省杭州市萧山区盈丰街道亚奥城北区1-6、1-7号 S104号铺,杭州市,浙江省,China,CN,Asia,18069881055；0571-81631518,loufeifu@mc2.cn,,30.26,120.26,
157,DJI大疆专区SIS店(成都华菱摄影城富卓店),Retail Store,low,四川省成都市金牛区文家巷12号华凌摄影城1楼A2,成都市,四川省,China,CN,Asia,13982155220,,,30.683782,104.044756,
158,DJI大疆授权体验店(重庆时代天街E馆),Retail Store,low,渝中区大坪长江路174号龙湖时代天街E馆2F-36,重庆市,重庆市,China,CN,Asia,"18523672079,023-63525867",,,29.543761,106.513975,
159,DJI大疆授权体验店(北京昌平悦荟),Retail Store,low,北京悦荟昌平区南环路10号L1001单元,北京市,北京市,China,CN,Asia,13161289067,1334568600@qq.com,,40.22,116.25,
160,DJI大疆授权体验店(常州购物中心),Retail Store,low,江苏省常州市天宁区延陵西路1-7号购物中心1楼大疆,常州市,江苏省,China,CN,Asia,15366822797,,,31.78228,119.968483,
161,DJI大疆专区SIS店(银川文化东街店),Retail Store,low,宁夏银川市兴庆区文化东街122号,银川市,宁夏回族自治区,China,CN,Asia,"0951-6026619,13007960066",,,38.473516,106.28967,
162,DJI大疆授权体验店(嘉兴八佰伴),Retail Store,low,浙江省嘉兴市南湖区中山路1360号八佰伴购物中心一层L1080铺位,嘉兴市,浙江省,China,CN,Asia,"0573-82825986,18067815263",,,30.758414,120.73284,
163,DJI大疆授权体验店(武汉金银潭永旺梦乐城),Retail Store,low,湖北省武汉市东西湖区金银潭大道1号永旺梦乐城一层134铺位,武汉市,湖北省,China,CN,Asia,027-85620220,,,30.66226,114.25951,
164,DJI大疆授权体验店(深圳益田假日),Retail Store,low,广东省深圳市南山区沙河街道华夏街社区深南大道9028号益田假日广场B1-36,深圳市,广东省,China,CN,Asia,"0755-86545054,19926693195",,,22.536973,113.975542,
165,DJI大疆授权体验店(汕头万象城),Retail Store,low,"广东省汕头市龙湖区华润万象城一层大疆L163,L164",汕头市,广东省,China,CN,Asia,18033389078,,,30.650722,104.11511,
166,DJI大疆授权体验店(长沙洋湖京东MALL),Retail Store,low,湖南省长沙市岳麓区洋湖街道景园路376号一楼大疆,长沙市,湖南省,China,CN,Asia,19097547846,2671195799@qq.com,,28.118651,112.934984,
167,DJI大疆授权体验店(上海百联中环购物广场),Retail Store,low,上海市普陀区真光路1288号L1-0112铺位,上海市,上海市,China,CN,Asia,16601805649,diaosiman@mc2.cn,,31.25,121.39,
168,DJI大疆授权体验店(北京华贸),Retail Store,low,北京市朝阳区建国路79号华贸购物中心1层L124,北京市,北京市,China,CN,Asia,17338157915,,,39.908904,116.476429,
169,DJI大疆授权体验店(北京王府井APM),Retail Store,low,北京市东城区王府井大街138号apm购物中心B区L205,北京市,北京市,China,CN,Asia,13021273012,,,39.914466,116.411713,
170,DJI大疆授权体验店(海口龙湖天街),Retail Store,low,海口市龙华区南海大道15号海口天街B-1F-11室,海口市,海南省,China,CN,Asia,19189896201,,,19.997067,110.328923,
171,DJI大疆专区专柜(潍坊阳光100城市广场店),Retail Store,low,山东省潍坊市奎文区胜利东街阳光100城市广场1号楼103,潍坊市,山东省,China,CN,Asia,0536-8100021;13573605174,,,36.713409,119.130429,
172,DJI大疆授权体验店(重庆悦荟购物中心),Retail Store,low,重庆市江北区悦荟购物中心3号门旁,重庆市,重庆市,China,CN,Asia,"023-67100361,15017003255",,,29.571733,106.547764,
173,DJI大疆授权体验店(洛阳大卫天地),Retail Store,low,洛阳市西工区中州路与解放路交叉口427号大卫天地1F-40,洛阳市,河南省,China,CN,Asia,18838831293,,,34.662974,112.430181,
174,DJI大疆授权体验店(红河蒙自南湖荟),Retail Store,low,云南省红河哈尼族彝族自治州蒙自市南湖南路9号南湖荟Mall内A-F1-138、139,红河哈尼族彝族自治州,云南省,China,CN,Asia,18810806891,757769958@qq.com,,23.01,103.13,
175,DJI大疆专区SIS店(驻马店解放大道店),Retail Store,low,河南省驻马店市驿城区解放大道人民派出所正对面,驻马店市,河南省,China,CN,Asia,"0396-2986899,15890824291",434894068@qq.com,,32.976114,114.028114,
176,DJI大疆授权专卖店(上海市森兰湾店),Retail Store,low,上海市浦东新区高行镇启帆路800弄11号楼一楼102室,上海市,上海市,China,CN,Asia,18616111101,371099393@qq.com,,31.184347,121.353673,
177,DJI大疆授权体验店(苏州常熟永旺),Retail Store,low,江苏省苏州市常熟市东南大道168号永旺梦乐城1楼131-133铺位大疆,苏州市,江苏省,China,CN,Asia,19962899833,zhangchenxi@feishangkeji.cn,,31.601151,120.777205,
178,DJI大疆授权专卖店(沈阳市百脑汇今恒翔店),Retail Store,low,辽宁省沈阳市和平区三好街百脑汇一楼1B01（正门门市）,沈阳市,辽宁省,China,CN,Asia,13804998546,85998774@qq.com,,41.765144,123.42717,
179,DJI大疆专区SIS店(曲靖博泰寥廓北路店),Retail Store,low,云南省曲靖市麒麟区寥廓北路168-15,曲靖市,云南省,China,CN,Asia,13769668193,921875759@qq.com,,25.511348,103.789632,
180,DJI大疆授权体验店(扬州万象汇),Retail Store,low,扬州市邗江区文昌中路606号万象汇1楼L133号,扬州市,江苏省,China,CN,Asia,19351836889,,,32.400945,32.400945,
181,DJI大疆授权体验店(上海太阳宫),Retail Store,low,上海市虹口区瑞虹路181号瑞虹天地太阳宫L1-55铺位,上海市,上海市,China,CN,Asia,021-55382007,,,31.263287,121.500251,
182,DJI大疆授权专卖店(郑州保利久街店),Retail Store,low,河南省郑州市中原区中原路与华山路交叉口（地铁D口）保利久街一楼6-108,郑州市,河南省,China,CN,Asia,13598823158,617080967@qq.com,,34.753919,113.605832,
183,DJI大疆授权体验店(青岛凯德广场),Retail Store,low,山东省青岛市市北区黑龙江南路18号凯德MALL新都心1层14号,青岛市,山东省,China,CN,Asia,15898848565,61156824@qq.com,,36.11999,120.40246,
184,DJI大疆授权体验店(成都龙湖金楠天街),Retail Store,low,四川省成都市武侯区龙湖金楠天街B馆-1F-06号商铺,成都市,四川省,China,CN,Asia,19136258168,19136258168@189.cn,,30.65,104,
185,DJI大疆授权体验店(武汉汉街),Retail Store,low,湖北省武汉市武昌区汉街第三街区J4-2-10A，J4-2-10B号商铺,武汉市,湖北省,China,CN,Asia,18971603751；027-87811286,,,30.556927,114.34125,
186,DJI大疆授权体验店(温州龙湾万达),Retail Store,low,浙江省温州市龙湾区永中街道永定路1188号1F1008铺位,温州市,浙江省,China,CN,Asia,19706883048,1772422081@qq.com,,27.91962,120.810509,
187,DJI大疆授权体验店(广州正佳广场),Retail Store,low,广州市天河区天河路228号正佳广场1楼1B065-66,广州市,广东省,China,CN,Asia,"020-38814584,19124257282",xujiahua@hengweixin.com.cn,,23.138477,113.333637,
188,DJI大疆专区SIS店(鄂尔多斯市达拉特南路店),Retail Store,low,鄂尔多斯市东胜区达拉特南路3号附5号,鄂尔多斯市,内蒙古自治区,China,CN,Asia,15149668866,,,39.809564,110.0043,
189,DJI大疆授权体验店(福州万象城),Retail Store,low,福州市鼓楼区洪山镇洪山园路五号福州万象城5层L527,福州市,福建省,China,CN,Asia,18349391640,,,26.063545,119.291269,
190,DJI大疆授权体验店(上海虹桥南丰城),Retail Store,low,上海市长宁区遵义路100号虹桥南丰城商场北区1楼L115,上海市,上海市,China,CN,Asia,021-52996782,,,31.207699,121.407103,
191,DJI大疆授权体验店(太原天美新天地),Retail Store,low,太原市小店区长风街天美新天地5层东北角,太原市,山西省,China,CN,Asia,15536329056,,,37.819489,112.564309,
192,DJI大疆授权体验店(成都龙湖锦宸天街),Retail Store,low,四川省成都市新都区大丰街道大天路699号龙湖锦宸天街A馆-1F-52,成都市,四川省,China,CN,Asia,19136238168,19136238168@189.cn,,30.76,104.07,
193,DJI大疆授权专卖店(贵阳中华南路店),Retail Store,low,贵阳市南明区中华南路149号中都大厦一层2至4轴,贵阳市,贵州省,China,CN,Asia,18985116385,,,26.574159,106.712299,
194,DJI大疆授权体验店(深圳海雅缤纷城),Retail Store,low,深圳市宝安区宝城5区宝民路海雅缤纷城第一层1S32-1S33号商铺,深圳市,广东省,China,CN,Asia,"0755-23095174,19926584330",,,22.567268,113.901413,
195,DJI大疆专区SIS店(哈尔滨教化电子城百润店),Retail Store,low,黑龙江省哈尔滨市南岗区松花江街139号教化广场2楼2F-88号,哈尔滨市,黑龙江省,China,CN,Asia,13766890945,77730978@qq.com,,45.747653,126.630304,
196,DJI大疆授权专卖店(扬州航空谷店),Retail Store,low,江苏省扬州市广陵区航空谷科创研发中心星航荟,扬州市,江苏省,China,CN,Asia,17751383807,1165343531@qq.com,,32.405092,119.555848,
197,DJI大疆专区SIS店(西安大都荟店),Retail Store,low,陕西省西安市雁塔区高新四路139号大都荟本地书馆2楼（DJI大疆授权店）,西安市,陕西省,China,CN,Asia,15399085729,1305282739@qq.com,,34.24385,108.89979,
198,DJI大疆专区SIS店(深圳华强北电子世界泽艺达),Retail Store,low,深圳市福田区华强广场华强电子世界2店2楼HQ022,深圳市,广东省,China,CN,Asia,0755-82798566；13510151359,,,22.54,114.09,
199,DJI大疆专区SIS店(合肥汇云大厦店),Retail Store,low,包河区黄山路与宿松路交口汇云大厦一楼,合肥市,安徽省,China,CN,Asia,"0551-62612911,18919667590",95420561@qq.com,,31.848294,117.279287,
200,DJI大疆授权体验店(珠海环宇城),Retail Store,low,广东省珠海市香洲区前河北路96号(近前山总站)环宇城L1-157C,珠海市,广东省,China,CN,Asia,18902532306,704180473@qq.com,,22.240903,113.530814,
201,DJI大疆专区专柜(长沙科佳摄影城店),Retail Store,low,湖南省长沙市赛格数码广场一楼1B03号,长沙市,湖南省,China,CN,Asia,13574124796,2226339849@qq.com,,39.897445,116.331398,
202,DJI大疆授权专卖店(福州市大利嘉福莱店),Retail Store,low,福州市台江区五一中路169号大利嘉A1-2,福州市,福建省,China,CN,Asia,0591-83355614,,,26.068324,119.313596,
203,DJI大疆哈苏概念店(长春卓展),Retail Store,low,吉林省长春市朝阳区重庆路1255号 长春卓展购物中心（2B-215）,长春市,吉林省,China,CN,Asia,15543454551,,,43.890612,125.3197,
204,DJI大疆专区SIS店(南京新工产业园店),Retail Store,low,江苏省南京市玄武区珠江路680号新工产业园101,南京市,江苏省,China,CN,Asia,17368718987,levy_0212@126.com,,32.053338,118.809817,
205,DJI大疆授权体验店(武汉宜家荟聚),Retail Store,low,湖北省武汉市硚口区园博大道1号武汉荟聚中心02B04铺位,武汉市,湖北省,China,CN,Asia,027-83237580,,,30.616706,114.166393,
206,DJI大疆授权体验店(上海周浦万达),Retail Store,low,上海市浦东新区年家浜路518号周浦万达商场L112铺位,上海市,上海市,China,CN,Asia,021-20942880,,,31.11428,121.569053,
207,DJI大疆授权体验店(成都金牛凯德),Retail Store,low,四川省成都市金牛区交大路183号凯德广场金牛01层91号,成都市,四川省,China,CN,Asia,19150357816,19150357816@qq.com,,39.94,116.43,
208,DJI大疆授权体验店(桂林高新万达),Retail Store,low,广西壮族自治区桂林市七星区穿山东路43号高新万达广场1楼1号门1002店铺,桂林市,广西壮族自治区,China,CN,Asia,"0773-2994563,19144346810",563838137@qq.com,,25.247414,110.326356,
209,DJI大疆授权体验店(盐城聚龙湖金鹰),Retail Store,low,江苏省盐城市盐都区新都街道268号盐城聚龙湖金鹰购物中心一楼A-F1138,盐城市,江苏省,China,CN,Asia,13365197685,,,33.339817,120.163692,
210,DJI大疆授权专卖店(西安百瑞未来广场店),Retail Store,low,雁塔路中段58号百瑞未来城一楼A-1-13,西安市,陕西省,China,CN,Asia,15389189838,,,34.232886,108.963372,
211,DJI大疆授权体验店(昆明万象城),Retail Store,low,云南省昆明市官渡区环城南路1号昆明万象城B108商铺,昆明市,云南省,China,CN,Asia,0871-65836039,,,25.029693,102.734004,
212,DJI大疆授权体验店(青岛金狮广场),Retail Store,low,山东省青岛市崂山区香港东路195号乙金狮广场1楼L1-01-2,青岛市,山东省,China,CN,Asia,18661759105,,,36.095621,120.463981,
213,DJI大疆授权体验店(东莞滨海湾购物村),Retail Store,low,广东省东莞市长安镇滨海湾新区万象滨海购物新村 L111店铺大疆店,东莞市,广东省,China,CN,Asia,18038461153,384406135@qq.com,,22.76,113.746,
214,DJI大疆授权体验店(百色爱琴海),Retail Store,low,广西百色市右江区百林桥头南爱琴海购物公园1楼1号门入口,百色市,广西壮族自治区,China,CN,Asia,17777666725,1282160448@qq.com,,23.877321,106.605322,
215,DJI大疆哈苏概念店(武汉武商MALL),Retail Store,low,湖北省武汉市江汉区解放大道690号武商MALL商场C座3楼C3-5铺位,武汉市,湖北省,China,CN,Asia,15927441545,,,30.58003,114.27034,
216,DJI大疆授权体验店(常州新北万达),Retail Store,low,"江苏省常州市新北区通江中路 88 号新北万达广场1F1020-2,1021",常州市,江苏省,China,CN,Asia,13645191345,zhanghang@feishangkeji.cn,,31.821058,119.965347,
217,DJI授权体验店(成都凯德魅力城授权体验店),Retail Store,low,四川省成都市成华区万科路9号凯德魅力城 01层01-03铺,成都市,四川省,China,CN,Asia,13232262373,599010324@qq.com,,30.3744,104.92,
218,DJI大疆授权体验店(渭南吾悦广场),Retail Store,low,陕西省渭南市临渭区仓程路与西华街十字西北角吾悦广场1层1001-2,渭南市,陕西省,China,CN,Asia,19991637702,19991637702@189.com,,34.51,109.47,
219,DJI大疆授权体验店(烟台万象汇),Retail Store,low,山东省烟台市莱山区观海路228号烟台万象汇1层L173,烟台市,山东省,China,CN,Asia,0535-6776728,,,37.475838,121.44753,
220,DJI大疆授权体验店(揭阳榕城万达),Retail Store,low,"广场省揭阳市榕城区临江南路万达广场一层1055,1056号",揭阳市,广东省,China,CN,Asia,13326737859,941664209@qq.com,,23.561022,116.396419,
221,DJI大疆授权体验店(武汉武商众圆),Retail Store,low,湖北省武汉市青山区和平大道959号武商众圆广场L1-060铺位,武汉市,湖北省,China,CN,Asia,"17740666107,027-86523450",shenbowen@mc2.cn,,30.626839,114.377063,
222,DJI大疆授权体验店(鄂尔多斯万达),Retail Store,low,内蒙古鄂尔多斯市东胜区鄂托克西街30号万达广场1层,鄂尔多斯市,内蒙古自治区,China,CN,Asia,17704771635,564433975@qq.com,,39.82083,109.9819,
223,DJI大疆授权体验店(肇庆敏捷广场),Retail Store,low,肇庆市端州区信安大道与砚都大道交叉肇庆敏捷广场1楼1023大疆,肇庆市,广东省,China,CN,Asia,17322944585,,,23.080396,112.509018,
224,DJI大疆授权体验店(西安大明宫万达),Retail Store,low,西安市未央区太华北路369号西安大明宫万达广场1F层1035号,西安市,陕西省,China,CN,Asia,15353675501,15353675501@189.com,,34.32,108.97,
225,DJI大疆授权体验店(苏州太仓万达),Retail Store,low,江苏省苏州市太仓市上海东路188号万达广场一层1026号大疆,苏州市,江苏省,China,CN,Asia,17715585118,3996462741@qq.com,,31.459882,121.139112,
226,DJI大疆哈苏概念店(深圳深圳湾万象城),Retail Store,low,广东省深圳市南山区海德一道1218号深圳湾万象城D区B1层DB139,深圳市,广东省,China,CN,Asia,"0755-22672509,18128857925",liuli@hengweixin.com.cn,,22.52052,113.95045,
227,DJI大疆授权体验店(深圳后浪新天地),Retail Store,low,深圳市龙华区大浪街道同胜社区同富裕工业园第9栋第1层编号HLS09L1044,深圳市,广东省,China,CN,Asia,18128126644,792189138@qq.com,,22.677642,113.99052,
228,DJI大疆授权体验店(上海七宝领展),Retail Store,low,上海市闵行区漕宝路3366号七宝领展B136A-B136C店铺,上海市,上海市,China,CN,Asia,"021-64195791,13120659632",,,31.15536,121.350757,
229,DJI大疆专区SIS店(济南泉城广场店),Retail Store,low,南门大街2号泉城大酒店北侧金焦点摄影器材,济南市,山东省,China,CN,Asia,18605312361,,,36.661747,117.021233,
230,DJI大疆专区SIS店(台州市银座街店),Retail Store,low,台州市路桥区银座街530号,台州市,浙江省,China,CN,Asia,15167678080,280781952@qq.com,,28.580032,121.3772,
231,DJI大疆授权专卖店(杭州百脑汇店),Retail Store,low,浙江省杭州市西湖区教工路23号百脑汇一楼1G01-1D02,杭州市,浙江省,China,CN,Asia,"0571-56762259,18658162003,18657111033",,,30.28065,120.142373,
232,DJI大疆授权体验店(西安南门王府井),Retail Store,low,西安市碑林区南关正街88号王府井百货2幢10101室南馆1层1A02-1,西安市,陕西省,China,CN,Asia,13389229572,13389229572@163.com,,34.25,108.95,
233,DJI大疆授权专卖店(阿克苏市金兰广场店),Retail Store,low,新疆维吾尔自治区阿克苏地区阿克苏市文化路金兰广场14栋106号,阿克苏地区,新疆维吾尔自治区,China,CN,Asia,"18502937295,15999295437,15299801382",1257302713@qq.com,,41.165514,80.282331,
234,DJI大疆授权体验店(沈阳铁西万象汇),Retail Store,low,辽宁省沈阳市铁西区建设东路158号铁西万象汇B116大疆,沈阳市,辽宁省,China,CN,Asia,13610714085,815185145@qq.com,,41.795633,123.372998,
235,DJI大疆授权体验店(广州云门NEW PARK),Retail Store,low,广东省广州市白云区百顺北路1号云门NewPark L116B、116C,广州市,广东省,China,CN,Asia,19927699486,329497738@qq.com,,23.2412,113.2857,
236,DJI大疆授权体验店(上海世博源),Retail Store,low,上海市浦东新区世博大道1368号世博源3区B层3B36铺位,上海市,上海市,China,CN,Asia,021-58200893,,,31.183631,121.49242,
237,DJI大疆授权体验店(石家庄裕华万达),Retail Store,low,河北省石家庄裕华区槐安路123号万达广场一层1070，1071号,石家庄市,河北省,China,CN,Asia,17333948555,,,38.023301,114.545643,
238,DJI大疆授权体验店(成都银泰in99),Retail Store,low,四川省成都市高新区天府大道1199号（成都银泰in99）L1-L125号,成都市,四川省,China,CN,Asia,19138921556,957922403@qq.com,,30.591119,104.075779,
239,DJI大疆专区店(太原市平阳路店),Retail Store,low,山西省太原市小店区平阳路黄河京都南150米路西尼康店,太原市,山西省,China,CN,Asia,0351-7555950;13834133640,,,37.84023,112.55863,
240,DJI大疆授权体验店(贵阳悦然时光),Retail Store,low,贵州省贵阳市观山湖区长岭南路与林城东路交汇东南角悦然时光G1层G1083,贵阳市,贵州省,China,CN,Asia,"0851-82239739,18302674149",1452016346@qq.com,,26.644417,106.652883,
241,DJI大疆授权专卖店(红河柒彩滇南店),Retail Store,low,云南省红河哈尼族彝族自治州蒙自市天马路与南湖西路交叉口柒彩滇南购物中心C1-F1-517号商铺,红河哈尼族彝族自治州,云南省,China,CN,Asia,0873-3745878,280353787@qq.com,,23.363758,103.398955,
242,DJI大疆授权专卖店(重庆鹅岭二厂),Retail Store,low,重庆市渝中区鹅岭正街1号鹅岭二厂文创公园09G-01,重庆市,重庆市,China,CN,Asia,15696618650,1178803324@qq.com,,29.557309,106.54672,
243,DJI大疆专区SIS店(合肥永毅黄山路店),Retail Store,low,合肥市蜀山区科大北区沿街门店西一铺,合肥市,安徽省,China,CN,Asia,"0551-66012885,15375377995",,,31.848097,117.27486,
244,DJI大疆授权专卖店(上海TPY中心店),Retail Store,low,上海市徐汇区肇嘉浜路1117号TPY中心2楼L2-12,上海市,上海市,China,CN,Asia,13661632354,935523583@qq.com,,31.199495,121.445438,
245,DJI大疆授权体验店(上海合生汇),Retail Store,low,上海市杨浦区翔殷路1099号上海合生汇商场一层L1-44A铺位,上海市,上海市,China,CN,Asia,13072116539,maoshuze@mc2.cn,,31.31,121.52,
246,DJI大疆授权体验店(上海长宁来福士),Retail Store,low,上海市长宁区长宁路 1123 号上海长宁来福士广场 (E)01层09/1 0号铺位,上海市,上海市,China,CN,Asia,18069139929,shihaoyu@mc2.cn,,31.22,121.41,
247,DJI大疆授权体验店(广州天环广场),Retail Store,low,广东省广州市天河区天河路天环广场负二楼B210DJI大疆创新,广州市,广东省,China,CN,Asia,13143540661；020-38804523,,,23.133731,113.327107,
248,DJI大疆授权专卖店(上海太平洋数码一期店),Retail Store,low,徐汇区漕溪北路41号太平洋数码一期一楼105铺位,上海市,上海市,China,CN,Asia,18621637322,756265273@qq.com,,31.198542,121.445753,
249,DJI大疆授权体验店(深圳南山海岸城),Retail Store,low,深圳市南山区粤海街道文心五路33号海岸城广场二层242号商铺,深圳市,广东省,China,CN,Asia,"0755-86966794,15338802089",,,22.522959,113.942625,
250,DJI大疆授权体验店(兰州城关万达),Retail Store,low,甘肃省兰州市城关区天水北路68号兰州城关万达广场1F1036 DJI大疆店铺,兰州市,甘肃省,China,CN,Asia,18809446318,18809446318@139.com,,36.05,103.82,
251,DJI大疆专区SIS店(新乡体育中心店),Retail Store,low,河南省新乡市红旗区人民东路体育中心北区102号,新乡市,河南省,China,CN,Asia,"0373-2098678,18567558800",781314893@qq.com,,35.31,113.89,
252,DJI大疆授权体验店(宁波万象汇),Retail Store,low,浙江省宁波市鄞州区钱湖北路267号宁波万象汇商场一层L124铺位,宁波市,浙江省,China,CN,Asia,0574-88089907,,,29.833625,121.568034,
253,DJI大疆授权体验店(盘锦万达),Retail Store,low,辽宁省盘锦市兴隆台区兴盛街道双兴南路71号盘锦双兴路万达广场1F 1029铺,盘锦市,辽宁省,China,CN,Asia,13029360699,664956836@qq.com,,41.101347,122.077581,
254,DJI大疆授权体验店(德阳旌阳万达),Retail Store,low,四川省德阳市旌阳区庐山北路一段8号万达广场1F中庭,德阳市,四川省,China,CN,Asia,17738877281,17738877281@189.com,,31.159645,104.414682,
255,DJI大疆授权体验店(北京中关村大融城),Retail Store,low,北京市海淀区中关村大街15号中关村大融城东区地上一层L1-07室,北京市,北京市,China,CN,Asia,18001318545,875213381@qq.com,,39.98,116.31,
256,DJI大疆专区SIS店(运城市解放路店),Retail Store,low,山西省运城市盐湖区二郎庙商业金街东星时代广场对面大疆,运城市,山西省,China,CN,Asia,15582963980,846742739@qq.com,,35.019937,110.997335,
257,拉萨城关万达授权体验店,Retail Store,low,西藏自治区拉萨市城关区城关万达一楼1051号（近一号门）,拉萨市,西藏自治区,China,CN,Asia,0891-6919939,,,29.663228,91.186795,
258,DJI大疆授权体验店(泉州南安中骏世界城),Retail Store,low,福建省泉州市南安市江北大道40号中骏世界城M118铺位,泉州市,福建省,China,CN,Asia,"17750098600,0595-86315158",1650335023@qq.com,,24.923307,118.654089,
259,DJI大疆专区SIS店(邯郸市日月城店),Retail Store,low,河北省邯郸市丛台区陵西大街阳光日月城东北角底商,邯郸市,河北省,China,CN,Asia,18931045552,43517672@qq.com,,36.605718,114.484481,
260,DJI大疆授权体验店(哈尔滨学府凯德),Retail Store,low,哈尔滨市南岗区学府路1-1号凯德广场·学府1层43号铺位,哈尔滨市,黑龙江省,China,CN,Asia,13314510828,2530007996@qq.com,,45.721322,126.609446,
261,DJI大疆授权体验店(福州清昌万达),Retail Store,low,福建省福州市福清市音西街道福清清昌万达广场内购物中心室内步行街1F层1007号商铺,福州市,福建省,China,CN,Asia,15396126073,2483173005@qq.com,,25.714732,119.349835,
262,DJI大疆授权体验店(洛阳王府井),Retail Store,low,河南省洛阳市涧西区南昌路139号王府井店1F-DJI大疆,洛阳市,河南省,China,CN,Asia,17739789968,21899968@qq.com,,34.65,112.42,
263,DJI大疆授权体验店(乌鲁木齐吾悦广场),Retail Store,low,乌鲁木齐市水磨沟区红光山路1666号 会展吾悦广场一楼1013号,乌鲁木齐市,新疆维吾尔自治区,China,CN,Asia,18690230517,572290732@qq.com,,43.880017,87.629325,
264,DJI大疆授权体验店(深圳观澜湖新城),Retail Store,low,广东省深圳市龙华区高尔夫大道8号观澜湖新城1层L105号,深圳市,广东省,China,CN,Asia,"0755-28012202,18124575765",renzhuoming@hengweixin.com.cn,,22.722588,114.075847,
265,DJI大疆授权体验店(阿克苏太百),Retail Store,low,阿克苏地区阿克苏市新华东路13号阿克苏太百购物中心1F-1,阿克苏地区,新疆维吾尔自治区,China,CN,Asia,15899109512,320232404@qq.com,,41.173139,80.261847,
266,DJI大疆专区SIS店(秦皇岛市河北大街店),Retail Store,low,河北省秦皇岛市海港区西港镇河北大街西段372-3大疆授权体验专区,秦皇岛市,河北省,China,CN,Asia,0335-5999779,,,39.912677,119.551623,
267,DJI大疆授权体验店(常州武进吾悦广场),Retail Store,low,江苏省常州市武进区湖塘镇武宜中路188号武进吾悦广场1楼大疆专柜,常州市,江苏省,China,CN,Asia,18761563212,,,31.727261,119.94229,
268,DJI大疆授权体验店(济南华山环宇城),Retail Store,low,山东省济南市历城区将军路1688号环宇城一层L144号大疆,济南市,山东省,China,CN,Asia,18654532006,492666246@qq.com,,36.612705,116.98201,
269,DJI大疆专区SIS店(广州大沙头二马路盛贤店),Retail Store,low,广州市越秀区大沙头二马路24号盛贤摄影器材城C区一楼0407铺,广州市,广东省,China,CN,Asia,020-83753331/17666660610,,,23.114371,113.283536,
270,DJI大疆授权体验店(西安老城根G Park),Retail Store,low,陕西省西安市莲湖区星火路22号老城根Gpark商业街区1F-25b-26,西安市,陕西省,China,CN,Asia,17309251601,,,34.290761,108.927752,
271,DJI大疆授权体验店(广州天河K11),Retail Store,low,广州市天河区珠江东路6号广州K11购物艺术中心B210,广州市,广东省,China,CN,Asia,18024005865,,,23.126998,113.332625,
272,DJI大疆授权体验店(湛江鼎盛广场),Retail Store,low,广东省湛江市霞山区人民大道南112号鼎盛广场中庭,湛江市,广东省,China,CN,Asia,18923322371,,,21.216802,110.408537,
273,DJI大疆专区SIS店(温州市民航路店),Retail Store,low,浙江省温州市鹿城区民航路北东晖锦苑2幢101-104鸿运数码潮馆,温州市,浙江省,China,CN,Asia,13385872716,,,28.014753,120.67775,
274,DJI大疆授权专卖店(杭州市城西银泰店),Retail Store,low,杭州市拱墅区祥符街道丰潭路380号城西银泰城3号门大疆授权体验店,杭州市,浙江省,China,CN,Asia,18158188575,,,30.30064,120.105645,
275,DJI大疆授权体验店(武汉群光广场),Retail Store,low,湖北省武汉市洪山区珞南街道珞喻路6号群光厂场1楼1F1024商铺,武汉市,湖北省,China,CN,Asia,15972042832,15972042832@139.com,,30.313179,114.211922,
276,DJI大疆授权体验店(九江快乐城),Retail Store,low,江西省九江市浔阳区京九路九江快乐城1F-020-02,九江市,江西省,China,CN,Asia,18720141069,1713145337@qq.com,,29.707596,115.977127,
277,DJI大疆授权专卖店(沈阳市百脑汇奕鑫店),Retail Store,low,辽宁省沈阳市和平区三好街90甲1层SYA1A11商铺,沈阳市,辽宁省,China,CN,Asia,13840548281,,,41.767506,123.427474,
278,DJI大疆授权体验店(廊坊广阳万达),Retail Store,low,"河北省廊坊市广阳区新华路 50 号万达广场【1F】层【1049A,1049-AB,1049-B】号商铺",廊坊市,河北省,China,CN,Asia,16631651615,16631651615@163.com,,39.527168,116.713578,
279,DJI大疆授权体验店(南京玄武招商花园城),Retail Store,low,江苏省南京市玄武区大壮观路69号招商花园城L1-029-1商铺大疆,南京市,江苏省,China,CN,Asia,17714305116,jinmouchao@feishangkeji.cn,,32.096642,118.815418,
280,DJI大疆授权体验店(山东黄岛梦乐城),Retail Store,low,山东省青岛市黄岛区西海岸新区漓江西路1669号永旺梦乐城1层116号,青岛市,山东省,China,CN,Asia,18266233196,,,35.955725,120.188314,
281,DJI大疆授权专卖店(青岛李沧苏宁生活店),Retail Store,low,山东省青岛市李沧区京口路40号（苏宁广场C座）一楼门头,青岛市,山东省,China,CN,Asia,18353202052,tianhexiangtong@163.com,,36.16,120.43,
282,DJI大疆授权体验店(克拉玛依汇嘉时代),Retail Store,low,新疆维吾尔自治区克拉玛依市克拉玛依区汇嘉滨河广场C区-L1004B,克拉玛依市,新疆维吾尔自治区,China,CN,Asia,"6266886,18196022050",,,45.586872,84.882446,
283,DJI大疆授权体验店(临沂万象汇),Retail Store,low,山东省临沂市兰山区银雀山街道沂蒙路159号临沂万象汇L146号大疆DJI,临沂市,山东省,China,CN,Asia,13280527670,,,35.068533,118.342956,
284,DJI大疆专区SIS店(杭州市文三路店),Retail Store,low,杭州市西湖区文三路393号-1 DJI,杭州市,浙江省,China,CN,Asia,18705813004,,,30.283056,120.136892,
285,DJI大疆授权体验店(银川建发阅彩城),Retail Store,low,宁夏回族自治区银川市金凤区正源北街277号阅彩城一层115A号,银川市,宁夏回族自治区,China,CN,Asia,13369583356,,,38.520319,106.262939,
286,DJI大疆授权体验店(金华永盛广场),Retail Store,low,浙江省金华市婺城区新华街67号永盛购物广场一层1F-45铺位,金华市,浙江省,China,CN,Asia,"0579-82226810,18069915838",xufan@mc2.cn,,29.1,119.65,
287,DJI大疆授权体验店(潍坊银座),Retail Store,low,山东省潍坊市奎文区胜利东街4000号银座商城（潍坊店）1F0084,潍坊市,山东省,China,CN,Asia,17263223393,3214365@qq.com,,36.705005,119.155862,
288,DJI大疆专区SIS店(石家庄市太和电子城恒威店),Retail Store,low,太和电子城1F58号西,石家庄市,河北省,China,CN,Asia,15831161919,,,38.044751,114.504767,
289,DJI大疆授权体验店(厦门宝龙一城),Retail Store,low,厦门市思明区金山路1号宝龙一城二区2-1号楼 LG层M1-LG-010商铺,厦门市,福建省,China,CN,Asia,18020771639,251073111@qq.com,,24.49,118.17,
290,DJI大疆授权专卖店(长沙渔人码头文创园店),Retail Store,low,湖南省长沙市岳麓区潇湘北路三段1088号渔人商业广场9栋116,长沙市,湖南省,China,CN,Asia,19074972668,2296409032@qq.com,,28.23053,112.96383,
291,DJI大疆专区专柜(南阳鸿德广场店),Retail Store,low,人民路中心广场西侧鸿德步行街DJI官方授权店,南阳市,河南省,China,CN,Asia,16639988801,,,32.998249,112.540611,
292,DJI大疆授权体验店(贵阳荔星中心),Retail Store,low,贵阳市观山湖区黔灵山路266号江华荔星广场L128大疆,贵阳市,贵州省,China,CN,Asia,0851-84771939,,,26.571803,106.715614,
293,DJI大疆授权体验店(镇江八佰伴),Retail Store,low,镇江市京口区中山东路288号八佰伴1F层1555号,镇江市,江苏省,China,CN,Asia,17314600578,,,32.204871,119.449742,
294,DJI大疆授权体验店(石家庄新华京东MALL),Retail Store,low,河北省石家庄市新华区中山西路83号石家庄京东MALL超级体验店,石家庄市,河北省,China,CN,Asia,15832103315,878165521@qq.com,,38.044325,114.485793,
295,DJI大疆授权体验店(成都北城天街),Retail Store,low,四川省成都市金牛区五福桥东路9号B馆-1F-017,成都市,四川省,China,CN,Asia,"83930309,18080930980",576102351@qq.com,,30.6822,104.0835,
296,DJI大疆授权专卖店(焦作和诚外滩店),Retail Store,low,河南省焦作市解放区王褚街道新安路与政一街交叉口1828号DJI大疆无人机,焦作市,河南省,China,CN,Asia,"18530053340,15978790376",2282914197@qq.com,,35.216677,113.232365,
297,DJI大疆授权体验店(天津西青大悦汇),Retail Store,low,天津市西青区西青大悦汇A馆1F-19,天津市,天津市,China,CN,Asia,13132019943,,,39.140439,117.090734,
298,DJI大疆专区SIS店(武汉汉口照材城店),Retail Store,low,湖北省武汉市江岸区胜利街6号1011万达数码,武汉市,湖北省,China,CN,Asia,18827083583,,,30.580217,114.293567,
299,DJI大疆授权专卖店(唐山迁安燕山大路),Retail Store,low,河北省唐山迁安燕山大路2140号,唐山市,河北省,China,CN,Asia,18831502160,9760398489@qq.com,,40.003026,118.702807,
300,DJI大疆授权体验店(营口万达),Retail Store,low,辽宁省营口市站前区市府路南1号万达广场一层1029,营口市,辽宁省,China,CN,Asia,13464721938,417266158@qq.com,,40.664005,122.236635,
301,DJI大疆专区专柜(南昌市新大地幸福店),Retail Store,low,南昌市八一大道135号,南昌市,江西省,China,CN,Asia,18779865772,,,28.666699,115.905912,
302,DJI大疆哈苏概念店(北京朝阳合生汇),Retail Store,low,北京市朝阳区西大望路甲22号院1号楼合生汇购物中心B2-12号,北京市,北京市,China,CN,Asia,13161289926,fhcyheshenghui@fhql.com,,39.9,116.49,
303,DJI大疆授权专卖店(上海福疆环龙照材城店),Retail Store,low,上海市静安区秣陵路198号环龙商场一楼1008-1011室,上海市,上海市,China,CN,Asia,15801899180,547719714@qq.com,,31.1455,121.275,
304,DJI大疆授权专卖店(长春百脑汇店),Retail Store,low,吉林省长春市朝阳区工农大路1313号百脑汇1楼1C08,长春市,吉林省,China,CN,Asia,"18644977880,15543102537",783589245@qq.com,,43.8682,125.3007,
305,DJI大疆授权专卖店(乌鲁木齐市宏景数码广场天山航空店),Retail Store,low,乌鲁木齐市天山区人民路宏景数码广场1层D17-D18,乌鲁木齐市,新疆维吾尔自治区,China,CN,Asia,0991-2323321,,,43.784369,87.607557,
306,DJI大疆授权体验店(金华义乌之心),Retail Store,low,浙江省金华市义乌市工人西路 9号义乌之心商场一楼L107-1铺位,金华市,浙江省,China,CN,Asia,0579-85172107,xuweihan@mc2.cn,,29.31,120.07,
307,DJI大疆授权体验店(杭州in77),Retail Store,low,浙江省杭州市上城区解放路238号湖滨银泰in77C区地下一层B1055铺位,杭州市,浙江省,China,CN,Asia,0571-87026290,,,30.247854,120.158063,
308,DJI大疆专区SIS店(西安东新科贸A座店),Retail Store,low,陕西省西安市碑林区雁塔路中段74号东新科贸A座1层东排1号,西安市,陕西省,China,CN,Asia,029-88778900,,,34.24233,108.96974,
309,DJI大疆授权体验店(南充王府井),Retail Store,low,四川省南充市高坪区江东中路五段王府井购物中心G-1-P026,南充市,四川省,China,CN,Asia,19161264057,19161264057@189.cn,,30.79,106.2,
310,DJI大疆授权体验店(邢台北国商城),Retail Store,low,河北省邢台市信都区中兴西大街188号北国商城一层东门口L154-L155DJI大疆,邢台市,河北省,China,CN,Asia,15632909377,15632909377@163.com,,37.06697,114.484902,
311,DJI大疆授权体验店(海口友谊阳光城),Retail Store,low,海南省海口市龙华区金龙路2号友谊阳光城1层1022号商铺,海口市,海南省,China,CN,Asia,19907667725,,,20.024099,110.324011,
312,DJI大疆专区SIS店((成都铁像寺),Retail Store,low,四川省成都市武侯区盛华北路铁像寺水街二期DJI大疆,成都市,四川省,China,CN,Asia,17358626327,zhangxiaolong77520@outlook.com,,30.556958,104.045262,
313,DJI大疆授权体验店(珠海万象汇),Retail Store,low,广东省珠海市银桦路102号万象汇购物商场一楼L103铺,珠海市,广东省,China,CN,Asia,18926910315,,,22.283819,113.565442,
314,DJI大疆授权专卖店(张家口胜利北路),Retail Store,low,河北省张家口市桥东区胜利北路8号察哈尔世纪广场南区A-3,张家口市,河北省,China,CN,Asia,19813088887,763443685@qq.com,,40.809644,114.89327,
315,DJI大疆授权体验店(合肥肥东吾悦),Retail Store,low,安徽省合肥市肥东县长江东路与桥头集路交汇处吾悦广场1F1041商铺大疆,合肥市,安徽省,China,CN,Asia,18956004182,liwei@feishangkeji.cn,,31.87371,117.450632,
316,DJI大疆授权体验店(邵阳步步高新天地),Retail Store,low,湖南省邵阳市双清区石桥街道邵阳大道与建设南路交汇处步步高新天地LG层G061,邵阳市,湖南省,China,CN,Asia,19998363939,1046927744@qq.com,,27.221871,111.484358,
317,DJI大疆授权专卖店(西安韦曲店),Retail Store,low,陕西省西安市长安区韦曲北街白玉兰酒店西侧一层第五商铺,西安市,陕西省,China,CN,Asia,"13379263193,15029289758",645286168@qq.com,,34.1669,108.95076,
318,DJI大疆授权体验店(深圳领展中心),Retail Store,low,广东省深圳市福田区福华路一路3号领展中心城L1层RL1037,深圳市,广东省,China,CN,Asia,0755-82526754，18124727280,maqiyin@hengweixin.com.cn,,22.535837,114.05967,
319,DJI大疆授权体验店(天津南开京东MALL),Retail Store,low,天津市南开区鼓楼街道南马路18号京东MALL一楼大疆,天津市,天津市,China,CN,Asia,15022335062,wangjianjun.157@jd.com,,39.137347,117.186455,
320,DJI大疆专区SIS店(重庆石桥铺高创),Retail Store,low,重庆市九龙坡区渝州路街道18号高创锦业1-42号,重庆市,重庆市,China,CN,Asia,13452120826,35622199@qq.com,,29.5333,106.5483,
321,DJI大疆授权体验店(济南西城龙湖天街),Retail Store,low,山东省济南市槐荫区经十路29299号西城龙湖商场1F-52号,济南市,山东省,China,CN,Asia,18660159779,2388020547@qq.com,,36.652122,116.903633,
322,DJI大疆授权体验店(深圳华强北曼哈数码广场),Retail Store,low,广东省深圳市福田区华强北曼哈数码广场A座一楼A1001,深圳市,广东省,China,CN,Asia,15012706663,,,22.54994,114.088238,
323,DJI大疆授权体验店(福州东百中心),Retail Store,low,福建省福州市鼓楼区八一七北路128号东百中心C2馆C2-102,福州市,福建省,China,CN,Asia,"13306922779,0591-83721923",,,26.086423,119.295105,
324,DJI大疆旗舰店(深圳欢乐海岸),Retail Store,low,深圳市南山区沙河街道东方社区滨海大道2008号旅游信息中心1层,深圳市,广东省,China,CN,Asia,17722495770,,,22.525966,113.98897,
325,DJI大疆授权体验店(北海银海万达),Retail Store,low,广西北海市银海区广东南路225号北海银海万达广场1楼1号门入口,北海市,广西壮族自治区,China,CN,Asia,"0779-2023301,19977968777",312141323@qq.com,,21.435932,109.139408,
326,DJI大疆专区SIS店(重庆石桥铺渝州路店),Retail Store,low,重庆市九龙坡区石桥铺渝州路19号(石桥铺地铁站1号出口),重庆市,重庆市,China,CN,Asia,17783478258,,,29.532919,106.483681,
327,DJI大疆专区SIS店(苏州诚品书店店),Retail Store,low,苏州市工业园区月廊街八号诚品书店 2F L263,苏州市,江苏省,China,CN,Asia,"0512-63065571,15150273739",1219504808@qq.com,,31.32717,120.716858,
328,DJI大疆授权体验店(大连凯德和平),Retail Store,low,辽宁省大连市沙河口区高尔基路701号凯德和平广场一层01-41号,大连市,辽宁省,China,CN,Asia,18941144383,366597364@qq.com,,38.895964,121.588316,
329,DJI大疆授权体验店(乌鲁木齐德汇万达),Retail Store,low,新疆乌鲁木齐市沙依巴克区奇台路657号德汇万达广场1F-1005A,乌鲁木齐市,新疆维吾尔自治区,China,CN,Asia,13319917816,,,43.78875,87.58605,
330,DJI大疆授权体验店(北京清河万象汇),Retail Store,low,北京市海淀区清河中街68号院1号楼1层101清河万象汇西区L125 DJI,北京市,北京市,China,CN,Asia,18500273270,,,40.356477,116.837218,
331,DJI大疆专区SIS店(哈尔滨微摄汇丰中央大街店),Retail Store,low,黑龙江省哈尔滨市道里区中央大街与端街交叉口,哈尔滨市,黑龙江省,China,CN,Asia,15004686844,351960991@qq.com,,45.46,126.37,
332,DJI大疆授权体验店(拉萨王府井购物中心),Retail Store,low,西藏自治区拉萨市堆龙德庆区北京大道30号王府井购物中心G-1F-P029商铺,拉萨市,西藏自治区,China,CN,Asia,"13322505327, 0891-6514991",2994035258@qq.com,,29.628016,91.077911,
333,DJI大疆授权体验店(广州白云机场),Retail Store,low,广州市白云区广州白云国际机场三号航站楼T3国内空侧二层T3B-2R31商铺(空港机场),广州市,广东省,China,CN,Asia,19120129213,15739361@qq.com,,23.367422,113.321892,
334,DJI大疆授权体验店(深圳宝能太古城),Retail Store,low,广东省深圳市南山区工业八路96号宝能all city购物中心北区1楼NL105号,深圳市,广东省,China,CN,Asia,"0755-26888067,19006651637",,,22.500566,113.939064,
335,DJI大疆旗舰店(杭州万象城),Retail Store,low,杭州市上城区富春路701号杭州万象城商场B1层B1S90铺位,杭州市,浙江省,China,CN,Asia,0571-85177981,,,30.251975,120.215619,
336,DJI大疆授权体验店(郑州万象城),Retail Store,low,河南省郑州市二七区民主路10号一层西L132号商户,郑州市,河南省,China,CN,Asia,15638235606,,,34.755007,113.661799,
337,DJI大疆授权体验店(泉州晋江SM广场),Retail Store,low,泉州市晋江市福兴路684号SM广场1098-1099号,泉州市,福建省,China,CN,Asia,"18150575952,0595-82091221",1076367798@qq.com,,24.777221,118.566843,
338,DJI大疆授权体验店(深圳卓悦中心),Retail Store,low,深圳市福田区福田街道岗厦社区福华路348号卓悦中心1栋BD层B158号商铺,深圳市,广东省,China,CN,Asia,"19926418248,0755-88304158",,,22.571476,114.059497,
339,DJI大疆专区SIS店(合肥罍街店),Retail Store,low,包河区罍街4期南区7号楼103,合肥市,安徽省,China,CN,Asia,13395605013,ddst@foxmail.com,,31.82371,117.29696,
340,DJI大疆授权体验店(天津鲁能城),Retail Store,low,天津市南开区绿荫里1号鲁能城购物中心1楼,天津市,天津市,China,CN,Asia,15222069456,452655987@qq.com,,39.095153,117.176072,
341,DJI大疆授权体验店(上海久光中心),Retail Store,low,上海市静安区共和新路 2188 号上海久光中心[ 1 ]层[ M106 ]室,上海市,上海市,China,CN,Asia,18910329373,wangzibin@fhql.com,,31.28,121.46,
342,DJI大疆哈苏概念店(青岛海信广场),Retail Store,low,山东省青岛市市南区澳门路117号海信广场B1层102220,青岛市,山东省,China,CN,Asia,17657198756,,,36.061168,120.395806,
343,DJI大疆哈苏概念店(上海港汇恒隆),Retail Store,low,上海市徐汇区虹桥路1号港汇恒隆广场1层171、172号铺,上海市,上海市,China,CN,Asia,"021-64260598,13166357915",,,31.194415,121.436783,
344,DJI大疆授权专卖店(杭州市萧山颐高店),Retail Store,low,浙江省杭州市萧山区金城路451号颐高数码广场1033号,杭州市,浙江省,China,CN,Asia,18705813004,862046527@qq.com,,30.181997,120.257801,
345,DJI大疆授权体验店(济宁龙贵),Retail Store,low,山东省济宁市任城区金宇路69号济宁龙贵购物广场店一楼204F1L017号铺位,济宁市,山东省,China,CN,Asia,13225375273,466708887@qq.com,,35.43115,106.60411,
346,DJI大疆专区SIS店(唐山市裕华道店),Retail Store,low,河北省唐山市路北区裕华道华岩北路40号,唐山市,河北省,China,CN,Asia,18831502939,457062248@qq.com,,39.3935,118.956,
347,DJI大疆授权体验店(无锡海岸城),Retail Store,low,江苏省无锡市滨湖区立信大道168号无锡海岸城A座1楼122号大疆,无锡市,江苏省,China,CN,Asia,19952727191,1160946031@qq.com,,31.488248,120.303511,
348,DJI大疆授权体验店(邯郸新世纪中心),Retail Store,low,河北省邯郸市丛台区中华大街29号新世纪中心1F-A20,邯郸市,河北省,China,CN,Asia,17692004033，13191701205,,,36.61083,114.489074,
349,DJI大疆授权体验店(广州南沙万达),Retail Store,low,广东省广州市南沙区双山大道3号南沙万达广场1016号,广州市,广东省,China,CN,Asia,13316092097,1712525399@qq.com,,22.8006,113.5385,
350,DJI大疆授权体验店(杭州滨江龙湖天街),Retail Store,low,杭州市滨江区江汉路1515号龙湖滨江天街一楼1F-31A,杭州市,浙江省,China,CN,Asia,19157762578,,,30.206812,120.209603,
351,DJI大疆授权体验店(河源坚基购物中心),Retail Store,low,广东省河源市东城西片区越王大道西边永康大道南边商业购物中 心111号 JJMAL 第一层L115号商铺,河源市,广东省,China,CN,Asia,"0762-3339060, 18316848440",1372382801@qq.com,,23.772253,114.715385,
352,DJI大疆授权体验店(济南恒隆广场),Retail Store,low,山东省济南市历下区泉城路188号东塔1楼127,济南市,山东省,China,CN,Asia,13583171355,397032467@qq.com,,36.663795,117.023722,
353,DJI大疆哈苏概念店(南宁万象城),Retail Store,low,华润万象城2楼L296号铺,南宁市,广西壮族自治区,China,CN,Asia,0771-5589578,,,22.817004,108.398618,
354,DJI大疆授权体验店(吉林欧亚综合体),Retail Store,low,吉林省吉林市丰满区吉林大街1-2号欧亚综合体一层Z5-1F-01,吉林市,吉林省,China,CN,Asia,15590770830,992728062@qq.com,,43.790266,126.553986,
355,DJI大疆专区SIS店(重庆解放碑邹容广场),Retail Store,low,重庆市渝中区临江路69号邹容广场A座,重庆市,重庆市,China,CN,Asia,023-63006963,,,29.565209,106.579406,
356,DJI大疆授权专卖店(吉林市世纪之舟专营店),Retail Store,low,吉林省吉林市丰满区世纪之舟大东华堂D-4号,吉林市,吉林省,China,CN,Asia,"0432-63290177,15043209086",1581850947@qq.com,,43.830372,126.563982,
357,DJI大疆授权体验店(重庆礼嘉天街),Retail Store,low,重庆市渝北区礼慈路14-15号礼嘉天街A馆2F-32号,重庆市,重庆市,China,CN,Asia,19146109867,s1871232653@163.com,,29.675922,106.497946,
358,DJI大疆授权专卖店(苏州东吴天街店),Retail Store,low,江苏省苏州市吴中区城南街道东吴南路178号东吴天街 1F-09,苏州市,江苏省,China,CN,Asia,18921996562,,,31.291672,120.591864,
359,DJI大疆授权体验店(上海闵行龙湖天街),Retail Store,low,上海市闵行区剑川路1000弄龙湖天街A-1F-49号,上海市,上海市,China,CN,Asia,13127834003,wangping@mc2.cn,,31.03,121.42,
360,DJI大疆授权体验店(天津鹏欣水游城),Retail Store,low,天津市红桥区西北角大丰路18号鹏欣-水游城-A区f1AS09-1,天津市,天津市,China,CN,Asia,15822562217,wjwj509@163.com,,39.15,117.18,
361,DJI大疆授权体验店(贵阳观山湖万达),Retail Store,low,贵州省贵阳市观山湖区云潭南路与观山西路交叉口南侧万达广场1楼-1A051,贵阳市,贵州省,China,CN,Asia,19208095739,3381583750@qq.com,,26.632086,106.608835,
362,DJI大疆授权体验店(重庆来福士购物中心),Retail Store,low,重庆来福士购物中心L1-33（朝天门中庭）,重庆市,重庆市,China,CN,Asia,15802303092,864858725@qq.com,,29.565011,106.587129,
363,DJI大疆授权体验店(深圳中洲湾),Retail Store,low,深圳市福田区滨河大道9283号中洲滨海商业中心项目一期B1层40号商铺,深圳市,广东省,China,CN,Asia,"0755-23609230,18124528208",,,22.528668,114.028763,
364,DJI大疆专区SIS店(杭州市欧美金融城店),Retail Store,low,杭州市余杭区仓前街道EFC欧美广场B区一楼DJl大疆,杭州市,浙江省,China,CN,Asia,"13368161868,15088752906",742060715@qq.com,,30.280314,120.000759,
365,DJI大疆授权体验店(深圳宝安大仟里),Retail Store,low,深圳市宝安区西乡街道麻布社区海城路3号大仟里一楼L166号,深圳市,广东省,China,CN,Asia,0755-23094176,,,22.57157,113.87316,
366,DJI大疆授权体验店(长沙湘江永旺),Retail Store,low,湖南省长沙市湘江新区金山桥街道雷锋大道1118号永旺梦乐城湘江新区店118-2号铺,长沙市,湖南省,China,CN,Asia,19386694700,hexinhua@mc2.cn,,28.28,112.89,
367,DJI大疆售点(成都华菱摄影城特旺店),Retail Store,low,成都市金牛区文家巷12号华凌婚纱摄影器材城一楼 A3号,成都市,四川省,China,CN,Asia,19980983260,284575139@qq.com,,30.683174,104.04504,
368,哈苏概念店(成都太古里),Retail Store,low,四川省成都市锦江区中纱帽街8号成都远洋太古里一层1241商铺,成都市,四川省,China,CN,Asia,15198197863,,,30.653266,104.082785,
369,DJI大疆授权体验店(广州南沙环宇城),Retail Store,low,广东省广州市南沙区中国铁建·南沙环宇城一楼L144,广州市,广东省,China,CN,Asia,18902300469；020-88836386,,,22.789434,113.520128,
370,DJI大疆专区SIS店(长春工农大街金胜店),Retail Store,low,吉林省长春市朝阳区工农大路1788号,长春市,吉林省,China,CN,Asia,13756900303,jinshengshuma@163.com,,43.8635,125.299,
371,DJI大疆授权体验店(北京京西大悦城),Retail Store,low,北京市石景山区阜石路173号院1号楼1F27B,北京市,北京市,China,CN,Asia,15321659635,,,39.977449,116.405243,
372,DJI大疆授权体验店(保定北国先天下),Retail Store,low,河北省保定市竞秀区朝阳北大街799号先天下1F东中庭扶梯旁L166,保定市,河北省,China,CN,Asia,19312584666,,,38.890178,115.468745,
373,DJI大疆授权体验店(重庆时代天街A馆),Retail Store,low,重庆市渝中区大坪正街174号龙湖时代天街A馆L1-04a/05baa号,重庆市,重庆市,China,CN,Asia,17671754831,11313224@qq.com,,29.543922,106.517706,
374,DJI大疆授权体验店(郑州郑东万象城),Retail Store,low,河南省郑州市金水区金水东路与东风南路交叉口郑东万象城北区2楼L229大疆,郑州市,河南省,China,CN,Asia,18637155616,18637155616,,34.46,113.453,
375,DJI大疆授权体验店(郑州正弘汇),Retail Store,low,河南省郑州市高新技术产业开发区瑞达路138号正弘汇一层L160号,郑州市,河南省,China,CN,Asia,15515753605,,,34.797036,113.680733,
376,DJI大疆授权体验店(合肥银泰中心),Retail Store,low,安徽省合肥市庐阳区长江中路98号银泰中心二期3层3-04铺,合肥市,安徽省,China,CN,Asia,19965256908 | 0551-65551052,,,31.862422,117.292221,
377,DJI大疆授权体验店(重庆U城天街),Retail Store,low,重庆市U城天街南8馆LG-31A号,重庆市,重庆市,China,CN,Asia,15723151816,1329897765@qq.com,,29.612018,106.300315,
378,DJI大疆授权体验店(惠州金山湖),Retail Store,low,惠州市惠城区河南岸街道三环南路32号（隆生金山湖中心）商场一楼46/47商铺,惠州市,广东省,China,CN,Asia,18127790201,13422997045@163.com,,23.06,114.45,
379,DJI大疆授权体验店(南京京东MALL大明路),Retail Store,low,江苏省南京市秦淮区大明路288号南京京东MALL,南京市,江苏省,China,CN,Asia,18352795640,wuqianwei.3@jd.com,,31.5921,118.4743,
380,DJI大疆授权体验店(荆州吾悦广场),Retail Store,low,湖北省荆州市沙市区荆沙大道与江汉北路交汇处109号荆州吾悦广场1043号铺位,荆州市,湖北省,China,CN,Asia,18007216891,yanyongkang@mc2.cn,,30.326155,112.267708,
381,DJI大疆授权体验店(上海松江印象城),Retail Store,low,上海市松江区广富林路1788号松江印象城一楼L127铺位,上海市,上海市,China,CN,Asia,18455181283,,,31.060624,121.222498,
382,DJI大疆授权体验店(北京富力广场),Retail Store,low,北京市朝阳区东三环中路65号楼一层102内128-4、128-5号,北京市,北京市,China,CN,Asia,18515966880,,,39.895788,116.460902,
383,DJI大疆授权体验店(深圳罗湖KKMALL),Retail Store,low,深圳市罗湖区桂园街道深南东路5016号京基KK MALL一楼L108铺,深圳市,广东省,China,CN,Asia,"0755-25123824,18938089952",517757753@qq.com,,22.547592,114.101476,
384,DJI大疆授权体验店(西安荟聚),Retail Store,low,"""陕西省西安市雁塔区沈家桥一路与西部大道交叉口东北角西安荟聚商场01A011商铺 """,西安市,陕西省,China,CN,Asia,17765099321,,,34.1728,108.9007,
385,DJI大疆授权体验店(赣州经开万达),Retail Store,low,江西省赣州市赣州经济技术开发区金岭大道18号万达广场室内步行街1F层1009号商铺,赣州市,江西省,China,CN,Asia,17746685668,501817476@qq.com,,25.846473,114.907052,
386,DJI大疆授权体验店(常州天宁吾悦),Retail Store,low,江苏省常州市天宁区东方西路名山路交叉口天宁吾悦1F-1062,常州市,江苏省,China,CN,Asia,13645191765,lijiachen@feishangkeji.cn,,31.767129,120.004314,
387,DJI大疆授权体验店(厦门大悦城),Retail Store,low,福建省厦门市集美区诚毅中路与杏林湾路交叉口西140米大悦城 1F DJI大疆,厦门市,福建省,China,CN,Asia,15558970670,63152716@qq.com,,24.476649,118.118661,
388,DJI大疆授权体验店(六安金安万达),Retail Store,low,安徽省六安市金安区中市街道皋城路与球拍路交叉口万达广场内1A层1A08铺,六安市,安徽省,China,CN,Asia,"0564-3682620,19055090550",w18326381249@163.com,,31.63,116.66,
389,DJI大疆授权体验店(合肥庐阳万象汇),Retail Store,low,合肥市庐阳区临泉路7388号华润万象汇L129号,合肥市,安徽省,China,CN,Asia,15375373005，0551-62683895,,,31.887763,117.25752,
390,DJI大疆授权专卖店(苏州久光百货店),Retail Store,low,江苏省苏州市吴中区旺墩路268号久光百货一楼1A-M07C+D,苏州市,江苏省,China,CN,Asia,18913798042,,,31.322684,120.715926,
391,DJI大疆授权体验店(深圳怀德万象汇),Retail Store,low,深圳市宝安区福永大道与怀德南路交汇处怀德万象汇ALG32,深圳市,广东省,China,CN,Asia,15999678569,caofengqiao@hengweixin.com.cn,,22.66631,113.81968,
392,DJI大疆授权体验店(淮安新亚),Retail Store,low,江苏省淮安市清江浦区淮海东路中央国际新亚广场1楼 01-01191铺位,淮安市,江苏省,China,CN,Asia,"15366636152,0517-89333620",2464550085@qq.com,,33.599,119.022,
393,DJI大疆授权体验店(上海南翔印象城),Retail Store,low,上海市嘉定区陈翔公路2299号l2-63a,上海市,上海市,China,CN,Asia,"(021) 6992 2139,16621526159",,,31.306422,121.306352,
394,DJI大疆授权体验店(绍兴柯桥万达),Retail Store,low,浙江省绍兴市柯桥镇柯桥街道钱陶路799号L1052铺位,绍兴市,浙江省,China,CN,Asia,18106830508,yaoshengyang@mc2.cn,,30.1,120.52,
395,DJI大疆授权体验店(大庆让胡路万达),Retail Store,low,大庆市让胡路区大港路206号万达广场一层,大庆市,黑龙江省,China,CN,Asia,18603693996,513683371@qq.com,,46.630466,124.874472,
396,DJI大疆授权专卖店(呼和浩特市诚数码城店),Retail Store,low,内蒙古呼和浩特市新城区中山东路街道诚信数码广场2楼2113-2114,呼和浩特市,内蒙古自治区,China,CN,Asia,13789614606,,,40.819006,111.666764,
397,DJI大疆授权体验店(长沙步步高星城天地),Retail Store,low,步步高星城天地G层G048,长沙市,湖南省,China,CN,Asia,0731-85950018,,,28.201932,112.869386,
398,DJI大疆专区SIS店(郑州西里路店),Retail Store,low,杜岭街与西里路交叉口西南角,郑州市,河南省,China,CN,Asia,13707653813,,,34.760558,113.670327,
399,DJI大疆授权体验店(宁波鄞州印象城),Retail Store,low,浙江省宁波市鄞州区钱湖北路288号印象城铺位L1-13c,宁波市,浙江省,China,CN,Asia,18968269065,gaoliangzhong@mc2.cn,,29.83,121.57,
400,DJI大疆专区SIS店(无锡香榭花园店),Retail Store,low,江苏省无锡市梁溪区县前西街238号,无锡市,江苏省,China,CN,Asia,0510-82300336;13921285677,,,31.587483,120.294453,
401,DJI大疆授权体验店(九江招商花园城),Retail Store,low,江西省九江市八里湖新区长虹西大道101号九江招商花园城L125商铺,九江市,江西省,China,CN,Asia,18156953910,373945728@qq.com,,29.691621,115.982996,
402,DJI大疆授权体验店(昆明同德广场),Retail Store,low,云南省昆明市盘龙区北京路昆明同德广场1楼5号门旁,昆明市,云南省,China,CN,Asia,0871-65090039,,,25.075006,102.730607,
403,DJI大疆授权体验店(郑州中原万达),Retail Store,low,河南省郑州市中原区中原中路171号中原万达一楼1057号大疆,郑州市,河南省,China,CN,Asia,18039335089,281432933@qq.com,,34.746102,113.600082,
404,DJI大疆授权体验店(苏州龙湖相城天街),Retail Store,low,江苏省苏州市相城区相城大道1399号苏州龙湖相城天街1F-32,苏州市,江苏省,China,CN,Asia,18114778897,lulu.li@xgngroup.cn,,31.370471,120.636887,
405,DJI大疆授权专卖店(合肥新粮仓店),Retail Store,low,安徽省合肥市蜀山区怀宁路新粮仓KUKU PARK 1-1-1,合肥市,安徽省,China,CN,Asia,"0551-62893168,19056856585",12534035@qq.com,,31.84321,117.227923,
406,DJI大疆授权专卖店(保定爱情金街),Retail Store,low,河北省保定市莲池区朝阳南大街2188号保定爱情广场金街108-2号商铺,保定市,河北省,China,CN,Asia,15031289955,19932863557@163.com,,38.819576,115.455377,
407,DJI大疆授权体验店(东莞常平翔龙天地),Retail Store,low,东莞市常平镇常平大道88号翔龙天地广场1F中庭大疆（华为对面）,东莞市,广东省,China,CN,Asia,18938599668,2063728637@qq.com,,22.974379,114.002223,
408,DJI大疆授权体验店(中山大信新都汇),Retail Store,low,广东省中山市石岐区莲员东路2号大信新都汇B座首层1FA16号大疆体验店,中山市,广东省,China,CN,Asia,19966323367,,,22.532876,113.382649,
409,DJI大疆授权体验店(成都悠方),Retail Store,low,中国(四川)自由贸易试验区成都高新区交子大道300号L1层-153号,成都市,四川省,China,CN,Asia,19150942420,19150942420@189.cn,,30.55,103.97,
410,DJI大疆授权体验店(上海美罗城),Retail Store,low,上海市徐汇区肇嘉浜路1111号美罗城第[一]层[A]段[1-2、1-3]单元,上海市,上海市,China,CN,Asia,19919990325,shenhuaijin@fhql.com,,31.2,121.45,
411,DJI大疆售点(西安赛格电脑城店),Retail Store,low,西安市雁塔路赛格电脑城4层A4009,西安市,陕西省,China,CN,Asia,18966871856,,,34.216192,108.915037,
412,DJI大疆专区SIS店(嘉兴海宁人民广场店),Retail Store,low,浙江嘉兴海宁市硖石街道人民路38号（爱琴海人民广场）,嘉兴市,浙江省,China,CN,Asia,13736486668,525473812@qq.com,,30.52617,120.691491,
413,DJI大疆授权专卖店(兰州市渭源路店),Retail Store,low,兰州市城关区渭源路34号,兰州市,甘肃省,China,CN,Asia,15693253771,,,36.055121,103.869673,
414,DJI大疆授权体验店(惠州港惠购物中心),Retail Store,low,广东省惠州市惠城区河南岸街道惠南社区南岸路66号港惠购物中心一楼1037号,惠州市,广东省,China,CN,Asia,18127781774,,,23.074451,114.424798,
415,DJI大疆授权体验店(成都青羊万达),Retail Store,low,四川省成都市青羊区日月大道一段978号成都青羊万达广场【1F】层【1051】号商,成都市,四川省,China,CN,Asia,19102630668,19102630668@189.cn,,30.68,103.97,
416,DJI大疆专区SIS店(广州广百智慧城店),Retail Store,low,广州市天河区华观路1932号智慧城广百广场L1-119,广州市,广东省,China,CN,Asia,19128779538,1950712919@qq.com,,23.10142,113.241615,
417,DJI大疆售点(常州迪诺水镇店),Retail Store,low,江苏省常州市新北区河海东路60号迪诺水镇19号楼,常州市,江苏省,China,CN,Asia,13775123459,185788750@qq.com,,31.822314,120.006097,
418,DJI大疆授权体验店(安康高新万达),Retail Store,low,陕西省安康市高新技术产业开发区万达广场【1F】层【1090】号商铺,安康市,陕西省,China,CN,Asia,17719695119,17719695119@189.com,,32.71,108.98,
419,DJI大疆授权体验店(西安曲江金地),Retail Store,low,陕西省西安市曲江新区曲江池东路999号金住地广场F1楼F117A-F117B号商铺,西安市,陕西省,China,CN,Asia,15399462902,153994621902@189.com,,34.203397,108.988435,
420,DJI大疆专区SIS店(石家庄市太和电子城海策店),Retail Store,low,石家庄市新华区民族路太和电子城一楼F区5-6号,石家庄市,河北省,China,CN,Asia,13463951756,,,38.045397,114.484151,
421,DJI大疆授权体验店(大连柏威年),Retail Store,low,辽宁省大连市中山区中山路大公街129-3柏威年购物中心一层L1017-A大疆创新,大连市,辽宁省,China,CN,Asia,13654257910,,,38.918044,121.627087,
422,DJI大疆专区SIS店(西安海荣赛格店),Retail Store,low,陕西省西安市未央区凤城二路赛格电子市场A座2楼A2005,西安市,陕西省,China,CN,Asia,15029673921,190165398@qq.com,,34.32354,108.94622,
423,DJI大疆授权体验店(抚州硕果时代),Retail Store,low,江西省抚州市临川区金巢大道777号硕果时代L1层1042号,抚州市,江西省,China,CN,Asia,13767682388,110204797@qq.com,,27.959706,116.369979,
424,DJI大疆专区SIS店(成都东郊记忆),Retail Store,low,四川省成都市成华区东郊记忆32号楼-1-24B,成都市,四川省,China,CN,Asia,17323162402,3264263937@qq.com,,35.30289,113.92981,
425,DJI大疆授权体验店(北京金源购物广场),Retail Store,low,北京市海淀区曙光街道金源新燕莎MALL1211-1222,北京市,北京市,China,CN,Asia,15321905938,,,39.959008,116.295323,
426,DJI大疆授权体验店(昆明瑞鼎城),Retail Store,low,昆明市盘龙区白云路168号瑞鼎城购物中心F1033,昆明市,云南省,China,CN,Asia,"0871-63511339,18088344043",864692212@qq.com,,25.060961,102.74778,
427,长春新睿航工农大路照材店,Retail Store,low,朝阳区隆礼路与富锦路交汇处（印咖啡正对面）,长春市,吉林省,China,CN,Asia,18686637588,,,43.867434,125.303099,
428,DJI大疆授权体验店(泸州龙马潭万达),Retail Store,low,四川省泸州市龙马潭区安宁街道金带路与红星路口交叉口万达广场1层1039A铺,泸州市,四川省,China,CN,Asia,17378962261,8342633@qq.com,,28.911193,105.420593,
429,DJI大疆授权体验店(广州永庆坊),Retail Store,low,广州市荔湾区多宝街道恩宁路十一甫新街7号大疆,广州市,广东省,China,CN,Asia,13068822256,huhaijiao@hengweixin.com,,23.11968,113.24719,
430,DJI大疆授权体验店(广州番禺天河城),Retail Store,low,广东省广州市番禺区南村镇万博二路180号粤海广场B独栋144、237铺,广州市,广东省,China,CN,Asia,020-31563090/18922182051/020-84509117,,,23.005474,113.348117,
431,DJI大疆授权体验店(福州东二环泰禾),Retail Store,low,"福建省福州市晋安区竹屿路6号东二环泰禾城市广场三期22#楼项目西区购物中心 一层楼编号为W-L101-2,W-L102-1""",福州市,福建省,China,CN,Asia,0591-87810306；18982816805,,,26.0956,119.3436,
432,DJI大疆授权体验店(武汉江夏永旺梦乐城),Retail Store,low,湖北省武汉市江夏区文化大道199号永旺梦乐城1F-1021铺位,武汉市,湖北省,China,CN,Asia,18571575013,wangshun@mc2.cn,,30.396546,114.316989,
433,DJI大疆专区SIS店（大连友好广场店）,Retail Store,low,辽宁省大连市中山区友好路8-7号,大连市,辽宁省,China,CN,Asia,"0411-84205999,13252920985",527672376@qq.com,,38.920706,121.640335,
434,DJI大疆授权体验店(西安万象天地),Retail Store,low,西安市雁塔区雁展路1111号西安万象天地L137号,西安市,陕西省,China,CN,Asia,029-89559123/17391988311,,,34.291306,108.828177,
435,DJI大疆授权体验店(福州仓山万达),Retail Store,low,福州市仓山区金山街道浦上大道272号仓山万达广场A区1楼28-A号DJI大疆,福州市,福建省,China,CN,Asia,0591-87721762,,,26.036156,119.274126,
436,DJI大疆授权专卖店(枣庄双子星店),Retail Store,low,山东省枣庄市薛城区双子星商圈东方壹号42号,枣庄市,山东省,China,CN,Asia,"13806321788,13396372353",,,34.800542,34.800542,
437,DJI大疆授权体验店(商丘正弘汇),Retail Store,low,河南省商丘市睢阳区正弘汇1楼DJI大疆L157号,商丘市,河南省,China,CN,Asia,13462706171,895191285@qq.com,,34.43743,115.65669,
438,DJI大疆哈苏概念店(天津万象城概念),Retail Store,low,乐园道9号天津万象城L1-120,天津市,天津市,China,CN,Asia,022-27729799,47112654@QQ.com,,39.1,117.22,
439,DJI大疆授权体验店(广州广州塔),Retail Store,low,广州市海珠区广州塔路8号广州塔广场L110b号铺,广州市,广东省,China,CN,Asia,"19128708417,020-32642364",huangyueqian@hengweixin.com.cn,,23.110061,113.331373,
440,DJI大疆授权体验店(北京SKP),Retail Store,low,北京市朝阳区建国路87号北京SKP购物中心D区5297,北京市,北京市,China,CN,Asia,18601233129,,,39.910264,116.478833,
441,DJI大疆授权体验店(钦州吾悦授权体验店),Retail Store,low,广西钦州市钦南区金海湾大街1号吾悦广场1楼1056号商铺,钦州市,广西壮族自治区,China,CN,Asia,19177709757,xuspoon@163.com,,21.939125,108.632051,
442,DJI大疆授权体验店(玉溪万达),Retail Store,low,云南省玉溪市红塔区棋阳路66号万达广场一楼中庭,玉溪市,云南省,China,CN,Asia,13619471138,879277008@qq.com,,24.352911,102.54719,
443,DJI大疆授权体验店(长沙宜家荟聚),Retail Store,low,长沙市岳麓区洋湖路253号荟聚1F02T,长沙市,湖南省,China,CN,Asia,0731-85860578,,,28.12323,112.945451,
444,DJI大疆授权体验店(石家庄勒泰商业中心),Retail Store,low,石家庄市长安区中山东路39号石家庄勒泰商业中心一层-25A大疆,石家庄市,河北省,China,CN,Asia,18630106646,18630106646@163.com,,38.044913,114.506928,
445,DJI大疆授权体验店(扬州京华城金鹰),Retail Store,low,江苏省扬州市邗江区京华城路168号京华城1楼(DJI大疆),扬州市,江苏省,China,CN,Asia,17368381311,372254154@qq.com,,32.391377,119.380726,
446,DJI大疆专区SIS店(濮阳黄河中路店),Retail Store,low,河南省濮阳市华龙区黄河路与振兴路交叉口往西200米路北黄河路218号,濮阳市,河南省,China,CN,Asia,18339321212,695244127@qq.com,,35.778441,115.035967,
447,DJI大疆专区SIS店(成都人民南路),Retail Store,low,四川省成都市武侯区人民南路三段37号附11号1楼,成都市,四川省,China,CN,Asia,13980818679,8339206@qq.com,,30.634778,104.066854,
448,DJI大疆哈苏概念店(上海前滩太古里),Retail Store,low,上海市浦东新区东育路500号前滩太古里商场二楼木区w-L2-01B 大疆DJI,上海市,上海市,China,CN,Asia,021-50936318,,,31.221682,121.544433,
449,DJI大疆授权体验店(珠海富华里),Retail Store,low,广东省珠海市香洲区九州大道2055号(富华里)14栋115号,珠海市,广东省,China,CN,Asia,15323609010,,,22.235608,113.539878,
450,DJI大疆授权体验店(上海天空万科),Retail Store,low,上海市青浦区崧泽大道2229弄66号L1-77铺位,上海市,上海市,China,CN,Asia,17521501724,yanyu@mc2.cn,,31.17,121.24,
451,DJI大疆授权体验店(海口万象城),Retail Store,low,海南省海口市龙华区金贸东路海口万象城 一楼L129店铺,海口市,海南省,China,CN,Asia,13379995978,,,20.026692,110.315081,
452,DJI大疆授权体验店(烟台开发区万达),Retail Store,low,山东省烟台市开发区衡山路17号烟台开发区万达广场1016号店铺,烟台市,山东省,China,CN,Asia,15949897379,3175039344@qq.com,,37.499,121.259,
453,DJI大疆授权专卖店(苏州永康路店),Retail Store,low,苏州市吴江区永康路商业街2号楼101号、102号,苏州市,江苏省,China,CN,Asia,"0512-63065571,15150273739",wayne.xu@y-tian.cn,,31.16231,120.64119,
454,DJI大疆授权体验店(临沂泰盛广场),Retail Store,low,山东省临沂市兰山区解放路与通达路交汇泰盛广场一楼L1076铺位,临沂市,山东省,China,CN,Asia,18865397721,,,35.067371,118.330589,
455,DJI大疆授权体验店(西安龙湖香醍天街),Retail Store,low,陕西省西安市灞桥区高楼路龙湖香醍天街A馆-1F-23DJI大疆,西安市,陕西省,China,CN,Asia,029-83233055/17316678357,,,34.26196,109.03745,
456,DJI大疆专区SIS店(滨州渤海六路店),Retail Store,low,山东省滨州市滨城区黄河五路与渤海六路交叉路口向南50米路东,滨州市,山东省,China,CN,Asia,13605438563;0543-2111066,,,37.387016,118.032622,
457,DJI大疆哈苏概念店(北京大兴机场),Retail Store,low,北京市大兴区大兴机场安检内中央商业区-西侧 S-BL02-013,北京市,北京市,China,CN,Asia,13161289979,,,39.52,116.44,
458,DJI大疆授权体验店(广州天汇广场),Retail Store,low,广州市天河区兴民路222号天汇广场B1层B125号,广州市,广东省,China,CN,Asia,"19129294369,020-38818906",2865007589@qq.com,,23.128794,113.339886,
459,DJI大疆授权体验店(泉州鲤城万达),Retail Store,low,福建省泉州市鲤城区黄龙南大道1699号泉州鲤城万达广场室内步行街1F层1051号商铺,泉州市,福建省,China,CN,Asia,19959856066,1634744967@qq.com,,24.932016,118.547201,
460,DJI大疆授权体验店(深圳深业上城),Retail Store,low,深圳市福田区皇岗路5001号深业上城(南区)一期商业L1层中庭体验专区,深圳市,广东省,China,CN,Asia,"0755-23488157,18925204730",,,22.558768,114.065228,
461,DJI大疆授权体验店(广州荔湾领展),Retail Store,low,广东省广州市荔湾区黄沙大道8号领展购物广场1楼172铺,广州市,广东省,China,CN,Asia,18922179674；020-81654479,,,23.109567,113.24027,
462,DJI大疆专区SIS店(杭州崇旺文三路店),Retail Store,low,浙江省杭州市西湖区文三路90号东部数码软件园9号楼b座,杭州市,浙江省,China,CN,Asia,18868448702,Hzcw201218@126.com,,30.16,120.843,
463,DJI大疆授权体验店(泰州万象城),Retail Store,low,江苏省泰州市海陵区永定东路399号泰州华润万象城二期L1层B119b号,泰州市,江苏省,China,CN,Asia,0523-85688858,,,32.441973,119.923799,
464,DJI大疆专区SIS店(烟台芝罘屯路店),Retail Store,low,山东省烟台市芝罘区芝罘屯路85号惠佳影像中心,烟台市,山东省,China,CN,Asia,"15215353919, 13356957978",,,37.56,121.37,
465,DJI大疆专区SIS店(贵阳脑百信舞扬店),Retail Store,low,贵州省贵阳市南明区法院街A、B幢1层脑百信数码世界一楼第39号铺位,贵阳市,贵州省,China,CN,Asia,13608582418,,,26.581023,106.716016,
466,DJI大疆授权体验店(周口文昌万达),Retail Store,low,河南省周口市川汇区大庆路与文昌大道交汇处文昌万达1F1030号DJI大疆,周口市,河南省,China,CN,Asia,17719119377,921493184@qq.com,,33.633175,114.672913,
467,DJI大疆授权体验店(西安钟楼开元),Retail Store,low,陕西省西安市碑林区解放市场6号1幢1单元10102室钟楼开元商城G1层G1-26-1/G1-26-2号,西安市,陕西省,China,CN,Asia,15353636379,,,34.26,108.95,
468,DJI大疆授权体验店(唐山爱琴海),Retail Store,low,河北省唐山市路北区爱琴海购物公园一层F1031B+F1032号,唐山市,河北省,China,CN,Asia,13230579929,,,39.639206,118.171286,
469,DJI大疆专区SIS店(郴州解放路店),Retail Store,low,湖南省郴州市解放路103号,郴州市,湖南省,China,CN,Asia,15607358088,327117206@qq.com,,25.802275,113.03437,
470,DJI大疆哈苏概念店(深圳罗湖万象城),Retail Store,low,深圳市罗湖区桂园街道书城路1号深圳万象城3期T308号商铺,深圳市,广东省,China,CN,Asia,19926451260/0755-83793403,,,22.540582,114.111148,
471,DJI大疆授权体验店(重庆江岸天街),Retail Store,low,重庆南岸区江南大道15号江岸天街A馆-1F-28,重庆市,重庆市,China,CN,Asia,17302332993,935406200@qq.com,,29.50983,106.516938,
472,DJI大疆哈苏概念店(厦门万象城),Retail Store,low,福建省厦门市思明区湖滨东路99号厦门万象城L222,厦门市,福建省,China,CN,Asia,"13459001260,0592-2032073",,,24.478416,118.117641,
473,DJI大疆授权体验店(大连开发区万达),Retail Store,low,大连市金州区辽河西路117号万达广场1层1052A铺位,大连市,辽宁省,China,CN,Asia,13941141420,,,39.059882,121.785228,
474,DJI大疆授权体验店(兰州万达茂),Retail Store,low,甘肃省兰州市七里河区秀川街道南滨河中路3499号万达茂1F-1017号商铺,兰州市,甘肃省,China,CN,Asia,13359408590,13359408590@189.com,,36.089854,103.680547,
475,DJI大疆专区SIS店(怀化迎丰中路店),Retail Store,low,湖南省怀化市鹤城区迎丰中路162号怀化大疆授权体验店,怀化市,湖南省,China,CN,Asia,"17774531968,17167722821,19918559568",549574172@qq.com,,27.554079,109.96942,
476,DJI大疆授权体验店(台州温岭银泰城),Retail Store,low,浙江省台州市温岭市中华路728号温岭银泰城一层1F020-A商铺,台州市,浙江省,China,CN,Asia,0576-86472686,zhuzhihao@mc2.cn,,28.39,121.36,
477,DJI大疆授权体验店(南通如皋万达),Retail Store,low,江苏省南通市如皋市万寿南路与解放东路交汇处万达广场1016商铺大疆,南通市,江苏省,China,CN,Asia,18136504239,yushengshen@feishangkeji.cn,,32.381278,120.580712,
478,DJI大疆授权体验店(长沙北辰荟),Retail Store,low,湖南省长沙市开福区湘江北路1500号北辰三角洲大悦城商场G层G-13铺位,长沙市,湖南省,China,CN,Asia,0731-85812397,,,28.18365,112.979168,
479,DJI大疆授权体验店(枣庄薛城万达),Retail Store,low,山东省枣庄市薛城区临城街道永兴路126号室内步行街1F层1078A.1078B.1079A.1079B号商铺,枣庄市,山东省,China,CN,Asia,17685412904,2034043868@qq.com,,34.792995,117.267065,
480,DJI大疆授权体验店(伊犁悦桐购物中心),Retail Store,low,新疆维吾尔自治区伊宁市经济合作区山东路朝北199号悦桐购物中心一楼大疆,伊犁哈萨克自治州,新疆维吾尔自治区,China,CN,Asia,15899109512,320232404@qq.com,,43.930376,81.284069,
481,DJI大疆授权体验店(威海威高),Retail Store,low,山东省威海市环翠区新威路17-5号威高广场购物中心A馆1层 L-X102,威海市,山东省,China,CN,Asia,13061107073,,,37.509026,122.121105,
482,DJI大疆授权体验店(厦门磐基中心),Retail Store,low,福建省厦门市思明区磐基名品中心,厦门市,福建省,China,CN,Asia,"15359312317,0592-5830382",,,24.482665,118.120328,
483,DJI大疆授权专卖店(天津市百脑汇店),Retail Store,low,天津市南开区鞍山西道336号百脑汇1层,天津市,天津市,China,CN,Asia,"022-60302866, 13820770256",8743001@qq.com,,39.114453,117.151534,
484,DJI大疆授权体验店(许昌胖东来天使城),Retail Store,low,河南省许昌市魏都区建安大道天使城4楼大疆,许昌市,河南省,China,CN,Asia,15137452468,540708304@qq.com,,34.041716,113.853296,
485,DJI大疆哈苏概念店(南京IFC),Retail Store,low,南京市建邺区江东中路351号国金中心G14号东侧沿街,南京市,江苏省,China,CN,Asia,025-58087586,,,31.594551,118.43327,
486,DJI大疆授权体验店(深圳龙华天虹),Retail Store,low,深圳市龙华区民治街道大岭社区龙华人民路2020号天虹购物中心L132号,深圳市,广东省,China,CN,Asia,18126508065,liuxuyang@hengweixin.com.cn,,22.62704,114.0209,
487,DJI大疆授权体验店(珠海华发商都),Retail Store,low,广东省珠海市香洲区珠海大道8号珠海南湾华发商都B馆 一层B1011号铺,珠海市,广东省,China,CN,Asia,18998172974,,,22.224602,113.509995,
488,DJI大疆授权体验店(成都滨江天街),Retail Store,low,四川省成都市成华区成华大道杉板桥路266号龙湖滨江天街1F-57B,成都市,四川省,China,CN,Asia,13880495945,3240869231@qq.com,,30.666041,104.124954,
489,DJI大疆授权体验店(长春红旗街万达),Retail Store,low,长春市朝阳区红旗街616号红旗街万达1层182商铺,长春市,吉林省,China,CN,Asia,17519974418,465460179@qq.com,,43.866775,125.294647,
490,DJI大疆授权体验店(沈阳中兴),Retail Store,low,辽宁省沈阳市和平区太原北街86号中兴商业方城五楼,沈阳市,辽宁省,China,CN,Asia,13470095951,1263902727@qq.com,,41.799012,123.407478,
491,DJI大疆授权体验店(东莞汇一城),Retail Store,low,广东省东莞市南城街道鸿福路200号第一国际汇一城一号裙楼一层B1153B号商铺,东莞市,广东省,China,CN,Asia,18025941011,hui120926@qq.com,,23.00729,113.754827,
492,DJI大疆专区SIS店(桂林八桂大厦),Retail Store,low,广西省桂林市秀峰区八桂大厦北侧一楼新广角影像中心（三多路口桂林新华书店斜对面）,桂林市,广西壮族自治区,China,CN,Asia,0773-2816999,xinguangjiao888@126.com,,25.279685,110.289989,
493,DJI大疆授权体验店(西安咸阳机场T5),Retail Store,low,陕西省咸阳市渭城区空港大道3号西安咸阳T5航站楼国内出发2楼安检内L2003,咸阳市,陕西省,China,CN,Asia,17316679853,17316679853@189.com,,34.460241,108.789163,
494,DJI大疆授权体验店(上海长泰广场),Retail Store,low,上海市浦东新区祖冲之路1239弄2号1层11-1室,上海市,上海市,China,CN,Asia,13370028107,changtaiguangchang@fhql.com,,31.21,121.61,
495,DJI大疆授权体验店(北京望京凯德MALL),Retail Store,low,北京市望京凯德MALL商铺号码: 01-31/32,北京市,北京市,China,CN,Asia,15534084146,lisifan@fhql.com,,39.99,116.46,
496,DJI大疆授权体验店(玉林玉州万达),Retail Store,low,广西壮族自治区玉林市玉州区金玉路338号玉林万达广场1楼1078号,玉林市,广西壮族自治区,China,CN,Asia,19978916174,286539952@qq.com,,22.641821,110.186882,
497,DJI大疆授权体验店(西安曲江大悦城),Retail Store,low,陕西省西安市曲江新区大悦城购物中心L1-16/2号铺,西安市,陕西省,China,CN,Asia,15399463051,15399463051@189.com,,34.217166,108.961541,
498,DJI大疆授权体验店(新乡宝龙城市广场),Retail Store,low,河南省新乡市红旗区新乡宝龙广场B区一层 M1-L1- 115/119/114-01号铺,新乡市,河南省,China,CN,Asia,17320192989,693394489@qq.com,,35.3,113.93,
499,DJI大疆授权体验店(合肥高新银泰),Retail Store,low,安徽省合肥市蜀山区望江西路与创新大道交叉口高新银泰百货1F-1008大疆,合肥市,安徽省,China,CN,Asia,19315328959,hf_gxyt_dji@xgngroup.cn,,31.83,117.13,
500,DJI大疆授权体验店(成都世茂广场授权体验专区),Retail Store,low,四川省成都市龙泉驿区金枫路 833号的世茂广场项第 L1 层 KL104 号场地,成都市,四川省,China,CN,Asia,18084813668,18084813668@189.cn,,30.58,104.19,
501,DJI大疆专区专柜(南京华海3C店),Retail Store,low,南京市珠江路435号华海3c一楼1F-8,南京市,江苏省,China,CN,Asia,025-52643542,,,32.048576,118.797899,
502,DJI大疆授权专卖店(重庆市十八梯),Retail Store,low,重庆市渝中区南纪门街道厚池街99号附2号,重庆市,重庆市,China,CN,Asia,19923113995,1506127724@qq.com,,29.55286,106.57015,
503,DJI大疆专区SIS店(合肥回忆黄山路店),Retail Store,low,安徽省合肥市蜀山区黄山路232号,合肥市,安徽省,China,CN,Asia,"0551-63367705,15375459883",,,31.84798,117.27496,
504,DJI大疆授权体验店(昆明1903购物公园),Retail Store,low,昆明市西山区前卫西路19号公园1903央街6B102,昆明市,云南省,China,CN,Asia,0871-67918839,1462011353@qq.com,,24.991861,102.682142,
505,DJI大疆授权体验店(贵阳亨特),Retail Store,low,贵州省贵阳市南明区文昌南路33号亨特国际2号门入口,贵阳市,贵州省,China,CN,Asia,(0851) 84857939,,,26.581937,106.725803,
506,DJI大疆授权体验店(成都天府大悦城),Retail Store,low,中国四川省成都市双流区夔州大道5号天府大悦城商场1F-A-50,成都市,四川省,China,CN,Asia,028-81199532,,,30.432091,104.088762,
507,DJI大疆授权体验店(哈尔滨红博中央公园),Retail Store,low,哈尔滨市南岗区红旗大街339号红博中央公园 公园大道B1大道区B26-1,哈尔滨市,黑龙江省,China,CN,Asia,13613622344,13613622344@163.com,,45.763381,126.704236,
508,DJI大疆授权体验店(成都西宸天街),Retail Store,low,四川省成都市金牛区花照壁西顺街399号首开龙湖西宸天街购物中心L1-37,成都市,四川省,China,CN,Asia,028-87359787,,,30.697642,104.030713,
509,DJI大疆专区SIS店(福州市津泰路店),Retail Store,low,福州市鼓楼区津泰路18号,福州市,福建省,China,CN,Asia,0591-88595329,,,26.08129,119.301044,
510,DJI大疆旗舰店(南京德基广场),Retail Store,low,南京市玄武区德基广场二期B1 C120,南京市,江苏省,China,CN,Asia,"15895991335,025-86777990",,,32.04,118.78,
511,DJI大疆专区SIS店(贵阳中铁逸都店),Retail Store,low,贵州省贵阳市观山湖区金阳街道云潭南路以东中铁.逸都国际G组团二期c6号1层3号,贵阳市,贵州省,China,CN,Asia,"0851-84776631,18111926631",,,26.604963,106.619521,
512,DJI大疆授权体验店(西安华阳城),Retail Store,low,陕西省西安市灞桥区华阳城购物中心一楼HY-105-6,西安市,陕西省,China,CN,Asia,18049693689,18049693689@189.com,,34.279633,109.071911,
513,DJI大疆专区SIS店(张家口银座店),Retail Store,low,河北省张家口市桥东区胜利北路56号银座商城一层东区大疆无人机体验专区,张家口市,河北省,China,CN,Asia,15803238500,763443685@qq.com,,40.804379,114.90069,
514,DJI大疆授权专卖店(大连奕鑫奥林匹克店),Retail Store,low,辽宁大连市西岗区白云街道奥林匹克电子城B2东-2028,大连市,辽宁省,China,CN,Asia,13898409996,25046696@qq.com,,38.88,121.58,
515,DJI大疆授权专卖店(漯河昌建外滩店),Retail Store,low,河南省漯河市源汇区滨河路与交通路交叉口昌建外滩3#楼103,漯河市,河南省,China,CN,Asia,19903954313,,,33.578399,114.038447,
516,DJI大疆授权专卖店(聊城月季里特色文旅街区店),Retail Store,low,高新区中华路长江路口月季里1号楼DJI大疆官方旗舰店,聊城市,山东省,China,CN,Asia,18906356070,,,36.444297,116.050748,
517,DJI大疆授权体验店(常州江南环球港),Retail Store,low,江苏省常州市新北区通江中路598号江南环球港L1层L1067-1068,常州市,江苏省,China,CN,Asia,19952803823,lulu.li@xgngroup.cn,,31.839766,119.979624,
518,DJI大疆专区SIS店(天津金元宝爱来无忧),Retail Store,low,天津市滨海新区开发区黄海路19号 金元宝爱来无忧全球睿选家电数码中心三楼大疆店,天津市,天津市,China,CN,Asia,"022-25868535,18526070528",958324667@qq.com,,39.034225,117.688808,
519,DJI大疆授权体验店(大连高新万达),Retail Store,low,辽宁省大连市甘井子区黄埔路500号高新万达1楼1009号店铺,大连市,辽宁省,China,CN,Asia,17784827375,,,38.863197,121.532951,
520,DJI大疆授权体验店(乌鲁木齐美美2),Retail Store,low,乌鲁木齐市沙依巴克区友好北路688号美美2购物中心南门一楼,乌鲁木齐市,新疆维吾尔自治区,China,CN,Asia,"0991-5250992,15199010906",,,43.820026,87.59095,
521,DJI大疆授权体验店(中山富逸城),Retail Store,low,中山市火炬开发区孙文东路688号(长江路与孙文东路交汇处)富逸城 TopPark L1-42,中山市,广东省,China,CN,Asia,18902826723,,,22.529521,113.424654,
522,DJI大疆授权体验店(北京蓝色港湾),Retail Store,low,北京市朝阳区朝阳公园路6号G层-SMM-550a,北京市,北京市,China,CN,Asia,18010167093,406013141@qq.com,,39.95,116.48,
523,DJI大疆授权体验店(南昌王府井购物中心),Retail Store,low,江西省南昌市青云谱区洪城路158号王府井购物中心G-1F-P022B号大疆,南昌市,江西省,China,CN,Asia,17770043380,1518513462@qq.com,,28.659763,115.912119,
524,DJI大疆授权体验店(中山海雅缤纷天地),Retail Store,low,广东省中山市南头镇南头大道东3号海雅缤纷广场一楼L107号铺,中山市,广东省,China,CN,Asia,18576228913,617196485@qq.com,,22.72,113.31,
525,DJI大疆授权体验店(重庆巴南万达),Retail Store,low,重庆巴南区渝南大道297号巴南万达1F-1B037,重庆市,重庆市,China,CN,Asia,19112648563,838091288@qq.com,,29.3983,106.543794,
526,DJI大疆专区专柜(沈阳市文萃路店),Retail Store,low,沈阳市和平区三好街文萃路4门1号,沈阳市,辽宁省,China,CN,Asia,13840151345,,,41.766367,123.430391,
527,DJI大疆授权体验店(济南和谐广场),Retail Store,low,山东省济南市槐荫区经十路22799号和谐广场F1层01066大疆专柜,济南市,山东省,China,CN,Asia,16653176802,,,36.652056,116.977776,
528,DJI大疆授权体验店(包河万象汇),Retail Store,low,安徽省合肥市包河区包河大道351号包河万象汇一层L112,合肥市,安徽省,China,CN,Asia,65571007,,,30.484,117.182,
529,DJI大疆授权体验店(深圳布吉万象汇),Retail Store,low,深圳市龙岗区布吉街道翔鸽路2号华润万象汇购物中心L1层L122号商铺,深圳市,广东省,China,CN,Asia,"0755-28504705,18938644378",,,22.594119,114.13093,
530,DJI大疆专区SIS店(长沙国储电脑城店),Retail Store,low,湖南省长沙市芙蓉区车站中路国储电脑城一楼24号,长沙市,湖南省,China,CN,Asia,13714001770,,,28.192224,113.010613,
531,DJI大疆授权体验店(宁波阪急百货),Retail Store,low,宁波市鄞州区东部新城海晏北路189号宁波阪急商场L4层445-1-a商铺,宁波市,浙江省,China,CN,Asia,"0574-87301298,18069197622",yishuailing@mc2.cn,,29.86,121.62,
532,DJI大疆授权体验店(漳州碧湖万达),Retail Store,low,漳州市龙文区建元东路2号万达广场 1F 1059铺位,漳州市,福建省,China,CN,Asia,18706086692,245378217@qq.com,,24.494566,117.675568,
533,DJI大疆授权体验店(重庆龙湖公园天街),Retail Store,low,重庆市两江新区秋成大道龙湖公园天街A馆1F-54/55号,重庆市,重庆市,China,CN,Asia,17320331645,xjy121426350@qq.com,,29.72201,106.574294,
534,DJI授权体验店(成都蜀都万达授权体验店),Retail Store,low,四川省成都市郫都区郫筒镇望丛东路139号成都蜀都万达广场1F层1063A，1065B,成都市,四川省,China,CN,Asia,17623050806,393741366@qq.com,,30.810542,103.904622,
535,DJI大疆专区SIS店(深圳科苑南路店),Retail Store,low,深圳市南山区粤海街道深圳湾创新科技中心T1栋1层104-105-106号,深圳市,广东省,China,CN,Asia,18922834891,,,22.533858,113.953216,
536,DJI大疆授权体验店(西宁王府井大象城),Retail Store,low,青海省西宁市城西区五四西路王府井大象城购物中心1楼L1-028,西宁市,青海省,China,CN,Asia,13195758922,,,36.644852,101.720297,
537,DJI大疆授权体验店(湘潭步步高),Retail Store,low,湖南省湘潭市岳塘区建设路口华隆步步高B馆一楼B023铺位号,湘潭市,湖南省,China,CN,Asia,"19996323020,0731-58617529",sunyu@mc2.cn,,27.84,112.92,
538,DJI大疆授权体验店(成都科华王府井),Retail Store,low,四川省成都市武侯区科华中路2号第1层L01128号商铺,成都市,四川省,China,CN,Asia,19150048352,19150048352@189.cn,,30.62,104.08,
539,DJI大疆专区SIS店(扬州汶河南路金鹰店),Retail Store,low,江苏省扬州市广陵区汶河南路62号,扬州市,江苏省,China,CN,Asia,13665227333,143021SWB@163.com,,32.39609,119.43964,
540,DJI大疆授权体验店(沈阳三台子万象汇),Retail Store,low,辽宁省沈阳市皇姑区黄河北大街33号三台子万象汇L167大疆,沈阳市,辽宁省,China,CN,Asia,13390140876/13610714085,,,41.87655,123.42426,
541,DJI大疆授权体验店(西安凯德御锦城),Retail Store,low,西安市灞桥区浐河东路北段299号凯德御锦城一楼08B,西安市,陕西省,China,CN,Asia,15529062150,,,34.28,109.05,
542,DJI大疆授权体验店(重庆高新天街),Retail Store,low,重庆市沙坪坝区永祥路与西双大道交汇处西北侧-高新天街A馆1F-50,重庆市,重庆市,China,CN,Asia,19122805658,2309669474@qq.com,,29.610338,106.364487,
543,DJI大疆专区SIS店(日照王府大街店),Retail Store,low,东港区兴业王府大街C区一楼6号,日照市,山东省,China,CN,Asia,0633-8781870,,,35.417441,35.417441,
544,DJI大疆授权体验店(佛山三水万达),Retail Store,low,广东省佛山市三水区南丰大道13号佛山三水万达广场1楼1056号大疆店铺,佛山市,广东省,China,CN,Asia,18898204067,2562184161@qq.com,,23.2016,112.8823,
545,DJI大疆授权体验店(南京江南虹悦城),Retail Store,low,江苏省南京市雨花台区赛虹桥街道南京虹悦城1F-E09-2商铺大疆,南京市,江苏省,China,CN,Asia,18168038946,dangruifan@feishangkeji.cn,,32.011404,118.761329,
546,DJI大疆授权体验店(云浮吾悦广场),Retail Store,low,广东省云浮市云城区金山路163号吾悦广场一楼1080铺,云浮市,广东省,China,CN,Asia,15521306033,15521306033@163.com,,22.93,112.03,
547,DJI大疆授权体验店(武汉万象城),Retail Store,low,湖北省武汉市建设大道与台北路交汇处L619,武汉市,湖北省,China,CN,Asia,18186455326；027-63370016,,,30.599377,114.278146,
548,DJI大疆哈苏概念店(石家庄北国先天下),Retail Store,low,河北省石家庄长安区中山东路326号先天下一层L150,石家庄市,河北省,China,CN,Asia,17334417888,,,38.04195,114.525867,
549,DJI大疆授权体验店(三亚国际免税城),Retail Store,low,海南省三亚市海棠区海棠北路118号cdf三亚国际免税城一期B区3楼,三亚市,海南省,China,CN,Asia,13750267464,83014978@qq.com,,18.372035,109.750965,
550,DJI大疆授权专卖店(上海市东方渔人码头店),Retail Store,low,上海市杨浦区杨树浦路1088号A座102,上海市,上海市,China,CN,Asia,18621501616,312032870@qq.com,,31.252183,121.531313,
551,DJI大疆授权体验店(东莞松山湖万象汇),Retail Store,low,广东省东莞市松山湖万象汇一楼L114大疆DJI,东莞市,广东省,China,CN,Asia,18122882202,,,22.594139,114.13093,
552,DJI大疆授权体验店(无锡荟聚),Retail Store,low,江苏省无锡市锡山区团结中路3号无锡荟聚购物中心02D04大疆,无锡市,江苏省,China,CN,Asia,18921301506,wx_bbbzx_dji@xgngroup.cn,,31.5823,120.3953,
553,DJI大疆授权体验店(长春万达茂),Retail Store,low,长春市净月开发区临河街与净月快速路交口长春万达茂1F层1111号商铺,长春市,吉林省,China,CN,Asia,15662244869,li676293893@sina.com,,43.875746,125.348585,
554,DJI大疆授权体验店(厦门中华城),Retail Store,low,福建省厦门市思明区思明南路171号之 25中华城A2地块C区1楼171号之 29-1 商铺,厦门市,福建省,China,CN,Asia,18150892728,1670439346@qq.com,,24.455384,118.077924,
555,DJI大疆授权体验店(长春摩天活力城),Retail Store,low,吉林省长春市经济技术开发区仙台大街与湛江路交汇摩天活力城一层137铺位,长春市,吉林省,China,CN,Asia,13404552544,,,43.836325,125.379442,
556,DJI大疆授权体验店(上海西郊百联),Retail Store,low,上海市长宁区仙霞西路88号百联西郊购物中心一楼G05-01F01-01-0037铺位,上海市,上海市,China,CN,Asia,021-52555736,,,31.2088,121.369117,
557,DJI大疆授权体验店(德州澳德乐),Retail Store,low,山东省德州市德城区东风东路1899号澳德乐时代广场一楼天井大疆门店,德州市,山东省,China,CN,Asia,杨硕,,,37.429163,116.366938,
558,DJI大疆授权体验店(南京仙林金鹰),Retail Store,low,江苏省南京市栖霞区学海路1号金鹰湖滨天地F1001-2,南京市,江苏省,China,CN,Asia,025-83115003/13906104006,,,32.100172,118.923293,
559,DJI大疆授权体验店(贵阳小河万科广场),Retail Store,low,贵州省贵阳市经济技术开发区贵阳大都会万科广场一楼108,贵阳市,贵州省,China,CN,Asia,18096185514,,,26.522028,106.711724,
560,DJI大疆授权专卖店(伊宁市望景华庭店),Retail Store,low,伊宁市解放西路225号望景华庭3号楼1-002室,伊犁哈萨克自治州,新疆维吾尔自治区,China,CN,Asia,13779152648；18299258758,,,43.938117,81.309149,
561,DJI大疆授权体验店(清远万达),Retail Store,low,广东省清远市清城区湖西路89号万达广场1071号大疆店铺,清远市,广东省,China,CN,Asia,13336496742,1746740723@qq.com,,23.712793,113.013367,
562,DJI大疆授权体验店(重庆光环花园城),Retail Store,low,重庆渝北区同茂大道115号光环花园城B馆-L1层-3A,重庆市,重庆市,China,CN,Asia,19111238653,19936630032@163.com,,29.722874,106.591242,
563,DJI大疆授权专卖店(厦门市会展中心店),Retail Store,low,厦门市思明区会展南路11号102,厦门市,福建省,China,CN,Asia,"0592-2212131,17750666995",465886177@qq.com,,24.464004,118.183081,
564,DJI大疆哈苏概念店(郑州大卫城),Retail Store,low,河南省郑州市金水区二七路丹尼斯大卫城6楼M021号DJI大疆哈苏融合店,郑州市,河南省,China,CN,Asia,15939036270,,,34.75853,113.666926,
565,DJI大疆授权体验店(南京雨花万象天地),Retail Store,low,江苏省南京市雨花台区雨花万象天地K座L138店铺（DJI大疆）,南京市,江苏省,China,CN,Asia,"025-52201829,18915929213",906536474@qq.com,,31.960375,118.732803,
566,DJI大疆授权体验店(重庆龙湖金沙天街),Retail Store,low,重庆市沙坪坝区小龙坎新街龙湖金沙天街B馆3号门1F-35商铺,重庆市,重庆市,China,CN,Asia,"023-65403766,15998905921",373339146@qq.com,,29.537485,106.512189,
567,DJI大疆专区SIS店(长春工农大街新梓文店),Retail Store,low,朝阳区工农大路海航荣御,长春市,吉林省,China,CN,Asia,18186883980,,,43.865484,125.295412,
568,DJI大疆授权体验店(沈阳太原街万达),Retail Store,low,辽宁省沈阳市和平区太原南街 2 号沈阳太原街万达广场1F层142BA号商铺,沈阳市,辽宁省,China,CN,Asia,13066788976,1070787652@qq.com,,41.792254,123.39964,
569,DJI大疆授权体验店(东莞星河城),Retail Store,low,广东省东莞市东城区东升路星河传说星河城商场一楼1041大疆体验店,东莞市,广东省,China,CN,Asia,13602398315,,,23.023234,113.787592,
570,DJI大疆授权体验店(上海漕河泾印象城),Retail Store,low,上海市漕宝路漕河泾印象城1015号 L1-25,上海市,上海市,China,CN,Asia,18016215128,lixiang0817@126.com,,31.17,121.41,
571,DJI大疆授权体验店(长沙金茂览秀城),Retail Store,low,湖南省长沙市岳麓区金茂览秀城2号门 D1020（中厅）,长沙市,湖南省,China,CN,Asia,19090366429,492683074@qq.com,,28.196887,112.903115,
572,DJI大疆授权体验店(哈尔滨西城红场),Retail Store,low,哈尔滨市南岗区哈西大街299号西城红场艺术港F1CB016,哈尔滨市,黑龙江省,China,CN,Asia,18346047918,,,45.704908,126.593696,
573,DJI大疆授权体验店(北京龙湖房山天街),Retail Store,low,北京市房山区政通南路2号院1号楼龙湖房山天街A栋1F-02铺,北京市,北京市,China,CN,Asia,17710520222,nyc555@qq.com,,39.75,116.15,
574,DJI大疆授权体验店(北京长楹天街授),Retail Store,low,"北京市朝阳区常通路1号院1号楼-2至5层101内一层1F-37a, 1F-37b",北京市,北京市,China,CN,Asia,18001358271,,,39.924992,116.599604,
575,DJI大疆授权体验店(上海宝山龙湖天街),Retail Store,low,上海市宝山区菊泉路502号E楼108室龙湖·上海宝山天街SHBCTJ-A-1F-44a号房屋,上海市,上海市,China,CN,Asia,16601758271,zhouhui@mc2.cn,,31.358,121.363,
576,DJI大疆授权体验店(武汉徐家棚京东MALL),Retail Store,low,湖北省武昌区和平大道与秦园路交叉口（徐家棚地铁站出口）武汉京东MALL,武汉市,湖北省,China,CN,Asia,13733446027,,,30.58895,114.329742,
577,DJI大疆授权体验店(深圳华强电子世界),Retail Store,low,福田区华强北街道华航社区华强北路1019号华强广场B座1层H1F2、H1F3、HIC3、H1COOS号,深圳市,广东省,China,CN,Asia,"18938637079,0755-23605989",1326109455@qq.com,,22.546105,114.081466,
578,DJI大疆授权体验店(天津南开大悦城),Retail Store,low,天津市南开区南门外大街2-6号天津大悦城南区2F层2F-B3A商铺,天津市,天津市,China,CN,Asia,15022335062，022-58089377,,,39.135522,117.180051,
579,DJI大疆哈苏概念店(沈阳万象城),Retail Store,low,辽宁省沈阳市和平区青年大街288号华润万象城L518,沈阳市,辽宁省,China,CN,Asia,15140250233,,,41.776208,123.434433,
580,DJI大疆授权体验店(杭州拱墅万达),Retail Store,low,杭行路666号万达广场1F1038铺位,杭州市,浙江省,China,CN,Asia,15204699745,1371160210@qq.com,,30.33012,120.119619,
581,DJI大疆授权体验店(乌鲁木齐经开万达),Retail Store,low,乌鲁木齐市经开区玄武湖路999号经开万达1楼1B21号,乌鲁木齐市,新疆维吾尔自治区,China,CN,Asia,18167931297,,,43.847781,87.52412,
582,DJI大疆授权体验店(重庆金开爱琴海),Retail Store,low,重庆渝北区金开大道1003号金开爱情海1F-F1027A,重庆市,重庆市,China,CN,Asia,15310150836,846222547@qq.com,,29.628323,106.533579,
583,DJI大疆授权体验店(成都京东MALL新南中心),Retail Store,low,四川省成都市武侯区都会路59号成都京东MALL1楼,成都市,四川省,China,CN,Asia,13688481883,1274967351@QQ.COM,,30.609839,104.070551,
584,DJI大疆授权体验店(温州龙湾吾悦广场),Retail Store,low,温州市龙湾区雁荡西路与上江路交叉口吾悦广场 1F1059铺位,温州市,浙江省,China,CN,Asia,15158480712,wangzilong@hjsj.cc,,27.986064,120.723223,
585,DJI大疆专区专柜(东营恒瑞文化广场店),Retail Store,low,东营市东营区济南路48号贝斯特摄影器材,东营市,山东省,China,CN,Asia,13356640618/13210337893,,,37.46121,118.509456,
586,DJI大疆专区SIS店(百色碧桂园),Retail Store,low,百色市东洲大道碧桂园翡翠郡7栋110号,百色市,广西壮族自治区,China,CN,Asia,"0776-2854693,13977698077",978543729@qq.com,,23.871104,106.632119,
587,DJI大疆哈苏概念店(武汉SKP),Retail Store,low,武汉市武昌区沙湖大道18号武汉SKP商场GF层B1010铺位,武汉市,湖北省,China,CN,Asia,18086019130,,,30.563347,114.345175,
588,DJI大疆授权体验店(舟山东港凯虹),Retail Store,low,浙江省舟山市普陀区东港街道海天大道2755号1F-L1-06铺位,舟山市,浙江省,China,CN,Asia,15958075253,137135565@qq.com,,29.962906,122.314413,
589,DJI大疆授权体验店(北京西红门荟聚中心),Retail Store,low,北京市大兴区欣宁街15号西红门荟聚购物中心1层5-01-140-SU,北京市,北京市,China,CN,Asia,010-80251903/13835521921,,,39.785593,116.326604,
590,DJI大疆授权专卖店(南宁三街两巷),Retail Store,low,广西南宁市兴宁区三街两巷街区金狮巷5号 DJI大疆店（城隍庙后面）,南宁市,广西壮族自治区,China,CN,Asia,"18011968685,19163919926",997258415@qq.com,,22.81,108.32,
591,DJI大疆授权体验店(北京丰科万达广场),Retail Store,low,北京丰科万达广场室内步行街【1F】层【1007】号商铺,北京市,北京市,China,CN,Asia,18731070361,huagnzijing@ylphone.cn,,39.83,116.31,
592,DJI大疆授权体验店(榆林万达),Retail Store,low,陕西省榆林市榆阳区明珠路街道万达广场 1062AB,榆林市,陕西省,China,CN,Asia,19102930573,19102930573@189.com,,38.247393,109.75,
593,DJI大疆授权体验店(深圳壹方城),Retail Store,low,深圳市宝安区新湖路99号壹方城B1层B1-003A号商铺,深圳市,广东省,China,CN,Asia,"0755-23223547,17796305912",,,22.552495,113.887683,
594,DJI大疆授权体验店(广安吾悦),Retail Store,low,四川省广安市金安大道三段70号广安吾悦广场1F中庭,广安市,四川省,China,CN,Asia,15283776733,19338975227@189.cn,,30.45,106.66,
595,DJI大疆授权体验店(上海宝杨宝龙),Retail Store,low,上海市宝山区同济路669弄10号M1-L1-071铺位,上海市,上海市,China,CN,Asia,17511662326,xuhaojie@mc2.cn,,31.4,121.49,
596,DJI大疆授权体验店(昆明好悦天地购物中心),Retail Store,low,云南省昆明市环城南路618号好悦天地购物中心3-1-06号商铺,昆明市,云南省,China,CN,Asia,18082824526,543070260@qq.com,,25.028922,102.719994,
597,DJI大疆授权体验店(长沙悦方IDmall),Retail Store,low,湖南省长沙市天心区坡子街216号悦方ID mall 1楼L152+153号铺,长沙市,湖南省,China,CN,Asia,19198081820,809073479@qq.com,,28.189608,112.975186,
598,DJI大疆授权体验店(广州白云凯德),Retail Store,low,广东省广州市白云区云城西路890号L1层25,广州市,广东省,China,CN,Asia,"19925899136,020-31213904",,,23.181166,113.269865,
599,DJI大疆授权体验店(重庆北城天街),Retail Store,low,重庆市江北区观音桥北城天街X馆2F-001号商铺,重庆市,重庆市,China,CN,Asia,023-67613267/15736133312,,,29.580065,106.538302,
600,DJI大疆授权体验店(南京城北万象汇),Retail Store,low,江苏省南京市栖霞区栖霞大道106-108号南京城北万象汇B馆1楼-218B号（DJI大疆）,南京市,江苏省,China,CN,Asia,"025-85323216,15651960712",906536474@qq.com,,31.12296,118.83033,
601,DJI大疆授权体验店(广州琶洲保利),Retail Store,low,广州市海珠区新港东路10号琶洲保利广场一楼1030铺,广州市,广东省,China,CN,Asia,19927573754,,,23.105188,113.390583,
602,DJI大疆授权体验店(无锡滨湖万象汇),Retail Store,low,江苏省无锡市滨湖区太湖大道1688号滨湖万象汇1层L133大疆,无锡市,江苏省,China,CN,Asia,17318800788,164816127@qq.com,,31.541707,120.260962,
603,DJI大疆授权体验店(上海静安大融城),Retail Store,low,上海市静安区沪太路1111弄6-10号，沪太路1105、1107号,上海市,上海市,China,CN,Asia,13122046263,fhjingandrc@fhql.com,,31.29,121.43,
604,DJI大疆授权体验店(上海浦东国际机场),Retail Store,low,上海市浦东新区迎宾大道8000号浦东国际机场T2航站楼2C-45,上海市,上海市,China,CN,Asia,17392574425,lijuntai@mc2.cn,,31.15,121.81,
605,DJI大疆授权体验店(重庆源著天街),Retail Store,low,重庆市源著天街A馆-LG层-28\29号,重庆市,重庆市,China,CN,Asia,18426405538,1054778674@qq.com,,29.605246,106.496358,
606,DJI大疆专区专柜((成都数码广场甲丁店),Retail Store,low,四川省成都市武侯区玉林街道人民南路四段数码广场负一楼D6,成都市,四川省,China,CN,Asia,18848254413,"3264263937@qq,com",,30.64,104.07,
607,DJI大疆授权体验店(西安赛格国际购物中心),Retail Store,low,陕西省西安市雁塔区小寨路街道长安中路赛格国际购物中心2层2c028,西安市,陕西省,China,CN,Asia,18909205659,,,34.229979,108.953911,
608,DJI大疆授权专卖店(忻州市古城店),Retail Store,low,山西省忻州市忻府区忻州古城秀荣街道南北大街146号,忻州市,山西省,China,CN,Asia,15535093373,1178220644@qq.com,,38.402447,112.743583,
609,DJI大疆授权体验店(杭州萧山万象汇),Retail Store,low,杭州市萧山区金城路927号万象汇商场B1层B183室,杭州市,浙江省,China,CN,Asia,0571-82675869,,,30.182085,120.269264,
610,DJI大疆授权体验店(广元利州万达),Retail Store,low,四川省广元市利州区万缘路与万缘大桥交叉口东南角广元万达广场一号门,广元市,四川省,China,CN,Asia,19180164358,19180164358@189.com,,32.424358,105.875969,
611,DJI大疆授权体验店(贵港港北万达授权体验店),Retail Store,low,广西贵港市港北区仙衣路与布山大道交汇处贵港港北万达广场1楼1056号商铺,贵港市,广西壮族自治区,China,CN,Asia,"0775-4898246,19977553173",592059037@qq.com,,23.117459,109.583298,
612,DJI大疆授权体验店(乌鲁木齐汇嘉时代),Retail Store,low,乌鲁木齐市新市区北京中路147号汇嘉时代一楼6号门旁,乌鲁木齐市,新疆维吾尔自治区,China,CN,Asia,"0991-3332887,18160537371",,,43.796886,87.619381,
613,DJI大疆授权专卖店(银川新百CCmall店),Retail Store,low,宁夏银川市兴庆区鼓楼新百ccmall西侧工农巷11号,银川市,宁夏回族自治区,China,CN,Asia,0951-8760449,,,38.47047,106.28575,
614,DJI大疆哈苏概念店(西安SKP),Retail Store,low,西安市碑林区长安北路261号skp-4楼,西安市,陕西省,China,CN,Asia,029-83699085/17791202294,,,34.247099,108.947332,
615,DJI大疆授权体验店(北京朝阳大悦城),Retail Store,low,北京市朝阳区朝阳北路101号朝阳大悦城B1-05,北京市,北京市,China,CN,Asia,15321861792,,,39.935676,116.561661,
616,DJI大疆授权体验店(烟台振华广场),Retail Store,low,山东省烟台市芝罘区西大街8号振华商厦1层A41,烟台市,山东省,China,CN,Asia,17554258626,1034966524@qq.com,,37.542069,121.38328,
617,DJI大疆授权体验店(西安益田假日世界),Retail Store,low,西安市新城区长乐西路益田假日世界购物中心1F,西安市,陕西省,China,CN,Asia,029-83220126/17392540513,,,34.269737,108.973356,
618,DJI大疆授权专卖店(郑州朗悦公园茂),Retail Store,low,河南省郑州市高新技术开发区朗悦公园茂U-24-05区1层A1024号,郑州市,河南省,China,CN,Asia,15515585526,2774029536@qq.com,,34.8209,113.5564,
619,DJI大疆授权体验店(莆田城厢万达),Retail Store,low,福建省莆田市城厢区霞林街道荔华东大道8号莆田万达广场1022B、1023号铺位,莆田市,福建省,China,CN,Asia,"0594-2997616,18950720359",1002138399@qq.com,,25.419062,118.994261,
620,DJI大疆授权体验店(赤峰红山万达),Retail Store,low,内蒙古自治区赤峰市红山区红山万达广场一楼1055,赤峰市,内蒙古自治区,China,CN,Asia,16604760774,2426599581@qq.com,,42.250544,118.908628,
621,DJI大疆授权体验店(郑州美盛龙湖天街),Retail Store,low,郑州市金水区丰庆路博远路龙湖美盛天街A-1F-01AA-DJI大疆,郑州市,河南省,China,CN,Asia,19937757983,317178441@qq.com,,34.816589,113.649277,
622,DJI大疆授权体验店(南通CBD大有境),Retail Store,low,南通市崇川区桃园路12号南通CBD大有境A座1层L1002B号商铺,南通市,江苏省,China,CN,Asia,15371959992/ 0513-89072226,,,31.969093,120.893305,
623,DJI大疆授权体验店(重庆星光68广场),Retail Store,low,重庆市江北区星光68广场A馆-LG层-10A号,重庆市,重庆市,China,CN,Asia,13389607753,19936630032@163.com,,29.57781,106.531916,
624,DJI大疆专区专柜(科佳摄影城店),Retail Store,low,长沙市芙蓉区解放东路科佳摄影城121-1号,长沙市,湖南省,China,CN,Asia,"0731-88000606,13975108805",,,28.190948,113.009345,
625,DJI大疆专区SIS店(达州升华广场),Retail Store,low,四川省达州市达川区汉兴大道二段222附7,达州市,四川省,China,CN,Asia,"15182835770,15882965165",84332922@qq.com,,31.18541,107.50683,
626,DJI大疆授权专卖店(西安百脑汇店),Retail Store,low,"陕西省西安市碑林区文艺路街道
雁塔中路68号百老脑汇一楼1C13A",西安市,陕西省,China,CN,Asia,15991665135,,,34.24133,108.96956,
627,DJI大疆授权体验店(宁波来福士),Retail Store,low,浙江省宁波市江北区大闸南路500号L103A店铺,宁波市,浙江省,China,CN,Asia,0574-87023281,,,31.232234,121.476523,
628,DJI大疆授权体验店(广州番禺K11),Retail Store,low,广州市番禺区汉溪大道178号一楼L04号铺（DJI大疆）,广州市,广东省,China,CN,Asia,"19065494459, 020-84880706",zjl200074@qq.com,,23,113.34,
629,DJI大疆专区SIS店(佛山岭南天地),Retail Store,low,广东省佛山市禅城区福晨里7号岭南天地新里第三层,佛山市,广东省,China,CN,Asia,16628522662,731411625@qq.com,,39.92,116.41,
630,DJI大疆授权体验店(福州金融街万达),Retail Store,low,福州市台江区鳌江路8号万达广场福州金融街店F1-1060,福州市,福建省,China,CN,Asia,"18050779807,0591-87721761",,,26.052604,119.342644,
631,DJI大疆授权体验店(北京丽泽天街),Retail Store,low,北京市丰台区丽泽路16号院1号楼1至5层101内1层30号,北京市,北京市,China,CN,Asia,15321831672,dennis2788@126.com,,39.87,116.34,
632,DJI大疆授权体验店(泰安万达),Retail Store,low,山东省泰安市泰山区万达广场1楼1052-1053铺DJI大疆授权体验店（泰安万达）,泰安市,山东省,China,CN,Asia,15610300301,,,36.067107,117.106495,
633,DJI大疆授权体验店(南宁五象万象汇),Retail Store,low,广西南宁市良庆区平乐大道37号五象万象汇1楼1号门入口处,南宁市,广西壮族自治区,China,CN,Asia,"19195637049,0771-4806785",303529728@qq.com,,22.728323,108.380886,
634,DJI大疆专区SIS店(南京飞越锦创书城店),Retail Store,low,南京市玄武区珠江路699号锦创书城一楼A-1-7号,南京市,江苏省,China,CN,Asia,18851048372,,,32.035567,118.793423,
635,DJI大疆授权体验店(郑州银泰金融岛),Retail Store,low,河南省郑州市金水区银泰金融岛4区1层CL1012室 DJI大疆,郑州市,河南省,China,CN,Asia,18538591993,459323947@qq.com,,34.812134,113.734634,
636,DJI大疆授权体验店(沈阳皇城恒隆),Retail Store,low,沈阳市沈河区中街路128号皇城恒隆广场一层157-1,沈阳市,辽宁省,China,CN,Asia,15940170226,,,41.8025,123.45463,
637,DJI大疆专区SIS店(潍坊万声健康工场店),Retail Store,low,山东省潍坊市奎文区福寿东街2699号万声健康工场1楼A027号大疆授权体验店,潍坊市,山东省,China,CN,Asia,15653640047,wfsqdz@163.com,,36.722359,119.188244,
638,DJI大疆授权体验店(南京江宁龙湾天街),Retail Store,low,江苏省南京市江宁区东山街道潭园西路199号龙湖龙湾天街1F-22a22b商铺大疆,南京市,江苏省,China,CN,Asia,18100605296,wangjianan@feishangkeji.cn,,31.94054,118.836927,
639,DJI大疆专区SIS店(昆明佰腾数码广场佳尼潮店),Retail Store,low,圆通北路佰腾数码广场B座,昆明市,云南省,China,CN,Asia,13688717846,,,25.057582,102.706036,
640,DJI大疆授权体验店(阳江百利广场),Retail Store,low,广东省阳江市江城区东风一路3号百利广场购物中心一层1021号商铺,阳江市,广东省,China,CN,Asia,19200593084,18985483028@163.com,,21.856066,111.959916,
641,DJI大疆授权体验店(北京金融街购物中心),Retail Store,low,北京市西城区金城坊街2号金融购物中心B1层B133大疆,北京市,北京市,China,CN,Asia,15601117791,1776491685@qq.com,,39.91,116.36,
642,DJI大疆授权体验店(天津K11),Retail Store,low,天津K11 Select购物艺术中心L112铺位,天津市,天津市,China,CN,Asia,(022)65170185,,,39.036183,117.702328,
643,DJI大疆授权体验店(张家港曼巴特),Retail Store,low,江苏省苏州市张家港市河西路88号曼巴特购物广场1楼1115大疆,苏州市,江苏省,China,CN,Asia,19951149535,lulu.li@xgngroup.cn,,31.860845,120.545521,
644,DJI大疆授权体验店(西安CityOn 熙地港),Retail Store,low,西安市未央区CityOn熙地港(西安)购物中心L1-007＆L2-006,西安市,陕西省,China,CN,Asia,18192129527,,,34.344013,108.952622,
645,DJI大疆授权专卖店(合肥百脑汇店),Retail Store,low,包河区金寨路162号百脑汇一楼1B03/1A04,合肥市,安徽省,China,CN,Asia,"18301810130,18156036387",3247453274@qq.com,,31.851479,117.27887,
646,DJI大疆授权体验店(中山百汇时代),Retail Store,low,中山市小榄镇北区北秀路43号百汇时代广场一区1层1F058-059号商铺,中山市,广东省,China,CN,Asia,18508135685,1075003516@qq.com,,22.689158,113.223888,
647,DJI大疆授权体验店(上海虹桥国际机场),Retail Store,low,上海市闵行区申达一路1号虹桥机场二号航站楼出发禁区D20-22点位,上海市,上海市,China,CN,Asia,13002175507,miusiheng@mc2.cn,,31.2,121.33,
648,DJI大疆授权专卖店(安阳华富广场店),Retail Store,low,河南省安阳市文峰区中华路与德隆街交叉口向东10米路北1楼102号,安阳市,河南省,China,CN,Asia,18937260333,68761128@qq.com,,36.088,114.3968,
649,DJI大疆授权体验店(杭州西溪龙湖天街),Retail Store,low,杭州市西湖区余杭塘路1001号龙湖西溪天街L1层 A-1F-08 号铺,杭州市,浙江省,China,CN,Asia,13626629944,1324007520@qq.com,,30.3,120.07,
650,DJI大疆授权体验店(柳州城中万达),Retail Store,low,广西柳州市城中区东环大道256号城中万达广场1楼1061号,柳州市,广西壮族自治区,China,CN,Asia,"18178240961,0772-8802667",362081055@qq.com,,24.329505,109.441824,
651,DJI大疆专区专柜(哈尔滨红军街店),Retail Store,low,哈尔滨市南岗区红军街124号汇丰照相机,哈尔滨市,黑龙江省,China,CN,Asia,13936246317,,,45.760117,126.636463,
652,DJI大疆授权体验店(厦门思明SM),Retail Store,low,福建省厦门市思明区嘉禾路399号SM新生活广场蓝宝石馆二层B201铺位,厦门市,福建省,China,CN,Asia,0592-5602922；18159283995,,,24.499931,118.125313,
653,DJI大疆授权专卖店(武汉民众乐园店),Retail Store,low,湖北省武汉市江汉区中山大道704号新民众乐园L1-03商铺,武汉市,湖北省,China,CN,Asia,13545104728,20138600@qq.com,,30.576349,114.28752,
654,DJI大疆授权体验店(伊犁环球港),Retail Store,low,新疆维吾尔自治区伊犁哈萨克自治州伊宁市阿合买提江路120号,伊犁哈萨克自治州,新疆维吾尔自治区,China,CN,Asia,15899109512,320232404@qq.com,,43.925285,81.308467,
655,DJI大疆授权体验店(十堰武商MALL),Retail Store,low,湖北省十堰市茅箭区人民北路1号1B-22铺位,十堰市,湖北省,China,CN,Asia,"19371962936,0719-8655568",zhaoyangchen@mc2.cn,,32.652311,110.786081,
656,DJI大疆哈苏概念店(哈尔滨卓展),Retail Store,low,黑龙江省哈尔滨市道里区上海街99号卓展购物中心B座1-006,哈尔滨市,黑龙江省,China,CN,Asia,18246126256,,,45.757727,126.605634,
657,DJI大疆授权体验店(南通海安万达),Retail Store,low,南通市海安市黄海大道160号万达广场1楼1001,南通市,江苏省,China,CN,Asia,15371957299,wangwencheng@feishangkeji.cn,,32.517437,120.447057,
658,DJI大疆授权专卖店(广州广百百货北京路店),Retail Store,low,广州市越秀区北京路295号广百百货8楼旧翼,广州市,广东省,China,CN,Asia,13533190133,,,23.12347,113.26878,
659,DJI大疆授权体验店(马鞍山金鹰),Retail Store,low,安徽省马鞍山市花山区金鹰购物中心1F F-1033-D,马鞍山市,安徽省,China,CN,Asia,13645193005,zhangyunfan@feishangkeji.cn,,31.687581,118.504322,
660,DJI大疆授权专卖店(沈阳市华强电子世界门市店),Retail Store,low,辽宁省沈阳市和平区三好街华强广场一楼(2门)门市DJI大疆,沈阳市,辽宁省,China,CN,Asia,18640100989,,,41.762735,123.426918,
661,DJI大疆授权体验店(北京祥云小镇),Retail Store,low,北京市顺义区中粮小镇北区7—103,北京市,北京市,China,CN,Asia,01069499101,1874813147@qq.com,,40.519,116.3149,
662,DJI大疆授权专卖店(江阴人民中路店),Retail Store,low,江苏省江阴市澄江街道人民中路31号,无锡市,江苏省,China,CN,Asia,13815282180,312915446@qq.com,,31.904433,120.276786,
663,DJI大疆授权体验店(长春欧亚卖场),Retail Store,low,吉林省长春市朝阳区5178号欧亚卖场一楼东海大街82号,长春市,吉林省,China,CN,Asia,13654492199,,,43.843615,125.246521,
664,DJI大疆授权体验店(南昌红谷滩万达),Retail Store,low,江西省南昌市红谷滩区南昌红谷滩万达广场A区1商业楼01-1077内,南昌市,江西省,China,CN,Asia,17336202349,2476256179@gq.com,,28.697661,115.855389,
665,DJI大疆专区SIS店(嘉兴市城北路店),Retail Store,low,浙江省嘉兴市南湖区新嘉街道城北路139号,嘉兴市,浙江省,China,CN,Asia,15888330606,525473812@qq.com,,30.768852,120.745111,
666,DJI大疆授权专卖店(广州众程数码广场店),Retail Store,low,广东省广州市天河区天河路560号众程数码广场106铺,广州市,广东省,China,CN,Asia,"02038808537,18027340634",775435863@qq.com,,23.139034,113.344148,
667,DJI大疆授权体验店(上海兴业太古汇),Retail Store,low,上海市静安区石门一路288号兴业太古汇3层L390DJI,上海市,上海市,China,CN,Asia,13122627192,,,31.228504,121.463251,
668,DJI大疆授权体验店(宁波天一京东MALL),Retail Store,low,浙江省宁波市海曙区中山东路181号京东MALL,宁波市,浙江省,China,CN,Asia,13064160913,zhaoyao.65@jd.con,,29.871722,121.555498,
669,DJI大疆授权体验店(杭州奥体印象城),Retail Store,low,杭州市萧山区飞虹路1408号奥体印象城一层L1-21铺位,杭州市,浙江省,China,CN,Asia,0571-87176718,,,30.223979,120.253391,
670,DJI大疆授权体验店(重庆光环购物公园),Retail Store,low,重庆市两江新区湖彩路118号约克郡光环购物公园C馆LG-06b,重庆市,重庆市,China,CN,Asia,023-60367151,,,29.653771,106.531583,
671,DJI大疆授权体验店(上海江桥万达),Retail Store,low,"上海市嘉定区金沙江西路1051号L1-1084,1086A铺",上海市,上海市,China,CN,Asia,"69982097,13127569096",fhjiangqiaowanda@fhql.com,,31.24,121.3,
672,DJI大疆授权体验店(东莞君尚),Retail Store,low,东莞市东纵大道93号君尚1007-1号,东莞市,广东省,China,CN,Asia,"0755-22226070,18929256236",zhangke@hengweixin.com.cn,,23.03879,113.77254,
673,DJI大疆授权体验店(淄博万象汇),Retail Store,low,山东省淄博市张店区金晶大道66号淄博万象汇一楼L135,淄博市,山东省,China,CN,Asia,15866291693,,,36.803011,118.060685,
674,DJI大疆授权体验店(佛山映月湖环宇城),Retail Store,low,广东省佛山市南海区桂澜中路18号中海环宇城F1-L125DJI大疆,佛山市,广东省,China,CN,Asia,18202082082,361903774@qq.com,,23.03924,113.05796,
675,DJI大疆授权专卖店(邹城城中步行街店),Retail Store,low,山东省济宁市邹城市钢山街道太平西路邹城公用水务1楼大疆,济宁市,山东省,China,CN,Asia,19653705588,,,35.41,116.98,
676,DJI大疆授权专卖店(成都数码广场特旺店),Retail Store,low,成都市武侯区人民南路四段一号时代数码广场1楼E15A,成都市,四川省,China,CN,Asia,13980983260,,,30.63325,104.066815,
677,DJI大疆专区SIS店(大连市辽宁街店),Retail Store,low,大连市金普新区辽宁街48-7,大连市,辽宁省,China,CN,Asia,15998480592,3509113805@qq.com,,39.051466,121.779668,
678,DJI大疆授权专卖店(西宁胜利路电子市场店),Retail Store,low,西宁市城西区胜利路电脑电子市场西厅1-33,西宁市,青海省,China,CN,Asia,13997042080,,,36.62828,101.76588,
679,DJI大疆授权体验店(无锡恒隆广场),Retail Store,low,江苏省无锡市梁溪区人民中路恒隆广场B1-110-2 大疆,无锡市,江苏省,China,CN,Asia,19941712397,,,31.575007,120.296935,
680,DJI大疆授权体验店(银川新百中心),Retail Store,low,宁夏省银川市兴庆区新华东街97号新华百货新百中心第一层001CF1013号商铺,银川市,宁夏回族自治区,China,CN,Asia,17752318448,17752318448@189.com,,38.46,106.28,
681,DJI大疆授权体验店(济南万象城),Retail Store,low,山东省济南市历下区经十路11111号济南万象城LG2层LG213,济南市,山东省,China,CN,Asia,0531-88950327/13589573219,,,36.666628,117.076409,
682,DJI大疆专区专柜(徐州新世纪乐园店),Retail Store,low,复兴南路4号新世纪乐园综合楼1层106，107,徐州市,江苏省,China,CN,Asia,17721762988,,,34.253571,117.206306,
683,DJI大疆专区SIS店(西安西部电子商城店),Retail Store,low,西安市雁塔区电子一路18号赛格电子市场 1A315-1A320,西安市,陕西省,China,CN,Asia,15802983611,729089310@qq.com,,34.22,108.92,
684,DJI大疆授权体验店(北京京东MALL南三环),Retail Store,low,北京市丰台区南苑路6号1号楼京东MALL（北京南三环店）一层,北京市,北京市,China,CN,Asia,19990707367,liuweiguang.15@jd.com,,39.5105,116.2343,
685,DJI大疆授权体验店(郑州探十里),Retail Store,low,河南省郑州市中原区陇海路与桐柏路交叉口探十里购物中心1楼L167z铺位 DJI 大疆,郑州市,河南省,China,CN,Asia,15738409299,,,34.735517,113.616353,
686,DJI大疆授权体验店(南京金鹰世界),Retail Store,low,江苏省南京市建邺区应天大街888号金鹰世界F1-00488大疆,南京市,江苏省,China,CN,Asia,17314407068，025-86533821,nj_hxjy_dji@xgngroup.cn,,32.0261,118.735,
