{
  "generatedAt": "2026-03-20T19:07:57.593Z",
  "mode": "all",
  "includeKinds": [
    "retail_store"
  ],
  "summary": {
    "retail_store": 1156
  },
  "vendors": [
    {
      "kind": "retail_store",
      "name": "DJI Authorised Store Westfield shopping city süd Vienna",
      "address": "Allee 123, 2334 Vösendorf",
      "city": "Politischer Bezirk Wien (Stadt)",
      "state": "Wien",
      "country": "奥地利",
      "phone": "+436642053528",
      "email": null,
      "website": "https://www.djistore.de/",
      "latitude": 48.109831,
      "longitude": 16.315413,
      "sourceContinent": "Europe",
      "sourceRegionCode": "AT"
    },
    {
      "kind": "retail_store",
      "name": "DJI Authorised Store Na Florenci St Prague",
      "address": "Na Florenci 2139/2, 11000 Nové Město, Czech Republic",
      "city": "Hlavní město Praha",
      "state": "Hlavní město Praha",
      "country": "捷克",
      "phone": "+420736608962",
      "email": null,
      "website": null,
      "latitude": 50.088442,
      "longitude": 14.433624,
      "sourceContinent": "Europe",
      "sourceRegionCode": "CZ"
    },
    {
      "kind": "retail_store",
      "name": "DJI Authorised Store MyZeil Frankfurt",
      "address": "Zeil 106, 60313 Frankfurt am Main, Germany",
      "city": "Regierungsbezirk Darmstadt",
      "state": "Hessen",
      "country": "德国",
      "phone": "+4969348777499",
      "email": null,
      "website": "https://www.djistore.de/",
      "latitude": 50.114989,
      "longitude": 8.678495,
      "sourceContinent": "Europe",
      "sourceRegionCode": "DE"
    },
    {
      "kind": "retail_store",
      "name": "DJI Authorised Store Olympia-Einkaufszentrum Munich",
      "address": "Hanauer Str. 68, 80993 München, Germany",
      "city": "Upper Bavaria",
      "state": "Bayern",
      "country": "德国",
      "phone": "+498939298767",
      "email": null,
      "website": "https://www.djistore.de/muenchen/",
      "latitude": 48.1833,
      "longitude": 11.530037,
      "sourceContinent": "Europe",
      "sourceRegionCode": "DE"
    },
    {
      "kind": "retail_store",
      "name": "DJI | Hasselblad Store Westfield Centro Centro Oberhausen",
      "address": "Centroallee 113-114, 46047 Oberhausen, Germany",
      "city": "Reg.-Bez. Düsseldorf",
      "state": "Nordrhein-Westfalen",
      "country": "德国",
      "phone": "+4920878015469",
      "email": null,
      "website": "https://www.djistore.de/oberhausen/",
      "latitude": 51.490281,
      "longitude": 6.876879,
      "sourceContinent": "Europe",
      "sourceRegionCode": "DE"
    },
    {
      "kind": "retail_store",
      "name": "DJI Authorised Store Hamburg Germany",
      "address": "Überseeboulevard 7, 20457 Hamburg",
      "city": "Homberg",
      "state": "Rhineland-Palatinate",
      "country": "德国",
      "phone": "+49 176 89915072",
      "email": null,
      "website": "https://www.djistore.de/",
      "latitude": 53.546396,
      "longitude": 9.960957,
      "sourceContinent": "Europe",
      "sourceRegionCode": "DE"
    },
    {
      "kind": "retail_store",
      "name": "DJI Authorised Store Amagertorv St Copenhagen",
      "address": "Amagertorv 20, 1160 København, Denmark",
      "city": "Københavns Kommune",
      "state": "Region Hovedstaden",
      "country": "丹麦",
      "phone": "+4553510011",
      "email": null,
      "website": null,
      "latitude": 55.678678,
      "longitude": 12.577563,
      "sourceContinent": "Europe",
      "sourceRegionCode": "DK"
    },
    {
      "kind": "retail_store",
      "name": "DJI Authorised Store Westfield La Maquinista Barcelona",
      "address": "Centre Comercial Westfield La Maquinista B20 Frente a Barça Store, C/ de Potosí, 2, Planta Baja, 08020 Barcelona,Spain",
      "city": "Barcelona",
      "state": "Cataluna",
      "country": "西班牙",
      "phone": "+34933030380",
      "email": null,
      "website": "https://www.djistoreiberia.com/",
      "latitude": 41.440626,
      "longitude": 2.197579,
      "sourceContinent": "Europe",
      "sourceRegionCode": "ES"
    },
    {
      "kind": "retail_store",
      "name": "ARS Madrid Spain",
      "address": "Av. gran bretaña, s/n, 28916 Leganés, Madrid, 西班牙",
      "city": "Madrid",
      "state": "Madrid",
      "country": "西班牙",
      "phone": "34912951154",
      "email": "madrid@djistoreiberia.com",
      "website": null,
      "latitude": 40.340145,
      "longitude": -3.733184,
      "sourceContinent": "Europe",
      "sourceRegionCode": "ES"
    },
    {
      "kind": "retail_store",
      "name": "DJI Authorised Store Rue Soufflot St Paris",
      "address": "15 Rue Soufflot, 75005 Paris",
      "city": "Paris",
      "state": "Île-de-France",
      "country": "法国",
      "phone": "+33176440108",
      "email": null,
      "website": "https://dji-paris.com/",
      "latitude": 48.847775,
      "longitude": 2.341385,
      "sourceContinent": "Europe",
      "sourceRegionCode": "FR"
    },
    {
      "kind": "retail_store",
      "name": "DJI Authorised Store Les Terrasses du Port Marseille",
      "address": "Centre commercial Les Terrasses du Port  9 Quai du Lazaret, 13002 Marseille",
      "city": "Marseille",
      "state": "Bouches-du-Rhône",
      "country": "法国",
      "phone": "+33 4 12 29 01 30",
      "email": "contact@dji-marseille.com",
      "website": "https://dji-marseille.com/",
      "latitude": 43.306968,
      "longitude": 5.364641,
      "sourceContinent": "Europe",
      "sourceRegionCode": "FR"
    },
    {
      "kind": "retail_store",
      "name": "DJI Authorised Store Rue du Président Carnot St Lyon",
      "address": "4 Rue du Président Carnot, 69002 Lyon",
      "city": "Lyon",
      "state": "Rhône",
      "country": "法国",
      "phone": "+33483970185",
      "email": null,
      "website": "https://dji-lyon.com/",
      "latitude": 45.762563,
      "longitude": 4.834552,
      "sourceContinent": "Europe",
      "sourceRegionCode": "FR"
    },
    {
      "kind": "retail_store",
      "name": "DJI | Hasselblad Store Westfield White City London",
      "address": "U1063 Westfield London Shopping Centre, London, W12 7GB",
      "city": "City of London",
      "state": "City of London",
      "country": "英国",
      "phone": "+44 02030986990",
      "email": "whitecity@dji-retail.co.uk",
      "website": null,
      "latitude": 51.506712,
      "longitude": -0.222411,
      "sourceContinent": "Europe",
      "sourceRegionCode": "GB"
    },
    {
      "kind": "retail_store",
      "name": "DJI | Hasselblad Store Regent St London",
      "address": "52 Regent St., London W1B 5RL",
      "city": "Greater London",
      "state": "England",
      "country": "英国",
      "phone": "+44 02033370746",
      "email": null,
      "website": null,
      "latitude": 51.510259,
      "longitude": -0.135353,
      "sourceContinent": "Europe",
      "sourceRegionCode": "GB"
    },
    {
      "kind": "retail_store",
      "name": "DJI | Hasselblad Store Corporation St Birmingham",
      "address": "23 New St, Birmingham B2 4RQ",
      "city": "West Midlands",
      "state": "England",
      "country": "英国",
      "phone": "+441217500145",
      "email": null,
      "website": "https://dji-retail.co.uk/",
      "latitude": 52.479115,
      "longitude": -1.897719,
      "sourceContinent": "Europe",
      "sourceRegionCode": "GB"
    },
    {
      "kind": "retail_store",
      "name": "DJI Authorised Store Lækjargata St Reykjavik",
      "address": "Kolagata 1, 101 Reykjavík,Iceland",
      "city": "Reykjavík",
      "state": "Greater Reykjavík",
      "country": "冰岛",
      "phone": "+354 519 4747",
      "email": null,
      "website": null,
      "latitude": 64.146994,
      "longitude": -21.937685,
      "sourceContinent": "Europe",
      "sourceRegionCode": "IS"
    },
    {
      "kind": "retail_store",
      "name": "DJI Authorised Store CityLife Shopping District Milano",
      "address": "Citylife Shopping District",
      "city": "Milano",
      "state": "Lombardia",
      "country": "意大利",
      "phone": "+39199201010",
      "email": null,
      "website": "https://dji-store.it/",
      "latitude": 45.478144,
      "longitude": 9.156893,
      "sourceContinent": "Europe",
      "sourceRegionCode": "IT"
    },
    {
      "kind": "retail_store",
      "name": "DJI Authorised Store Centro Commerciale Euroma2 Roma",
      "address": "Centro commerciale Euroma2 Viale dell'Oceano Pacifico 83",
      "city": "Roma",
      "state": "Lazio",
      "country": "意大利",
      "phone": "+39199201010",
      "email": null,
      "website": "https://dji-store.it/",
      "latitude": 41.817377,
      "longitude": 12.458792,
      "sourceContinent": "Europe",
      "sourceRegionCode": "IT"
    },
    {
      "kind": "retail_store",
      "name": "DJI | Hasselblad Store Mall of the Netherlands Leidschendam",
      "address": "jasmijn 11, 2262 AN Leidschendam, Netherlands",
      "city": "Pijnacker-Nootdorp",
      "state": "Zuid-Holland",
      "country": "荷兰",
      "phone": "+31624103172",
      "email": null,
      "website": "https://dji-experiencestore.com/",
      "latitude": 52.088752,
      "longitude": 4.38233,
      "sourceContinent": "Europe",
      "sourceRegionCode": "NL"
    },
    {
      "kind": "retail_store",
      "name": "DJI Authorised Store Oslo Norway",
      "address": "Karl Johans gt. 8, Oslo, Norway",
      "city": "Oslo",
      "state": "Oslo",
      "country": "挪威",
      "phone": "+45 27 60 60 60",
      "email": null,
      "website": null,
      "latitude": 59.911664,
      "longitude": 10.746966,
      "sourceContinent": "Europe",
      "sourceRegionCode": "NO"
    },
    {
      "kind": "retail_store",
      "name": "DJI Authorised Store Stary Browar Poznan",
      "address": "Półwiejska 42,61-888 Poznan",
      "city": "Poznań",
      "state": "Greater Poland",
      "country": "波兰",
      "phone": "+48734734920",
      "email": null,
      "website": null,
      "latitude": 52.400922,
      "longitude": 16.928014,
      "sourceContinent": "Europe",
      "sourceRegionCode": "PL"
    },
    {
      "kind": "retail_store",
      "name": "DJI Authorised Store Galeria Katowicka Katowice",
      "address": "3 Maj 30, 40-097 Katowice",
      "city": "Katowice",
      "state": "Silesia",
      "country": "波兰",
      "phone": "+48734734920",
      "email": null,
      "website": null,
      "latitude": 50.259376,
      "longitude": 19.017513,
      "sourceContinent": "Europe",
      "sourceRegionCode": "PL"
    },
    {
      "kind": "retail_store",
      "name": "DJI Authorised Store Marynarska St Warszawa",
      "address": "Marynarska 15, 02-674 Warsaw",
      "city": "Warszawa",
      "state": "Mazovia",
      "country": "波兰",
      "phone": "+48734734920",
      "email": null,
      "website": null,
      "latitude": 52.178248,
      "longitude": 20.997613,
      "sourceContinent": "Europe",
      "sourceRegionCode": "PL"
    },
    {
      "kind": "retail_store",
      "name": "DJI Authorised Store Drottninggatan St Stockholm",
      "address": "Drottninggatan 57, 111 21 Stockholm",
      "city": "Stockholm",
      "state": "Stockholm",
      "country": "瑞典",
      "phone": "+46760001060",
      "email": null,
      "website": null,
      "latitude": 59.333849,
      "longitude": 18.059944,
      "sourceContinent": "Europe",
      "sourceRegionCode": "SE"
    },
    {
      "kind": "retail_store",
      "name": "DJI Authorised Store Midtown Guadalajara",
      "address": "PLAZA MIDTOWN JALISCO, Av Adolfo López Mateos Nte 2405-2º NIVEL, Local 89, Italia Providencia, 44648 Guadalajara, Jal.",
      "city": "Guadalajara",
      "state": "Jalisco",
      "country": "墨西哥",
      "phone": "+523331136049",
      "email": null,
      "website": null,
      "latitude": 20.694624,
      "longitude": -103.375786,
      "sourceContinent": "North America",
      "sourceRegionCode": "MX"
    },
    {
      "kind": "retail_store",
      "name": "DJI Authorised Store Town Square Metepec",
      "address": "Plan de Ayutla 102b, Residencial la Providencia, 52177 San Francisco Coaxusco, Méx., México",
      "city": "Metepec",
      "state": "México",
      "country": "墨西哥",
      "phone": "+527226889171",
      "email": null,
      "website": null,
      "latitude": 19.267532,
      "longitude": -99.604953,
      "sourceContinent": "North America",
      "sourceRegionCode": "MX"
    },
    {
      "kind": "retail_store",
      "name": "DJI Authorised Store Plaza Fiesta San Agustín Monterrey",
      "address": "Av Batallón de San Patricio 1000, Monterrey Plaza Fiesta San Agustín, Zona San Agustín, 66260 San Pedro Garza García, N.L.",
      "city": "San Pedro Garza García",
      "state": "Nuevo León",
      "country": "墨西哥",
      "phone": "+528113390317",
      "email": null,
      "website": null,
      "latitude": 25.649462,
      "longitude": -100.336355,
      "sourceContinent": "North America",
      "sourceRegionCode": "MX"
    },
    {
      "kind": "retail_store",
      "name": "DJI Authorised Store Mitikah CDMX",
      "address": "Cto Interior Avenida Río Churubusco 601 Local-N 2-24, Xoco, Benito Juárez, 03330 CDMX",
      "city": "Benito Juárez",
      "state": "Ciudad de México",
      "country": "墨西哥",
      "phone": "+525517155969",
      "email": null,
      "website": null,
      "latitude": 19.360181,
      "longitude": -99.169108,
      "sourceContinent": "North America",
      "sourceRegionCode": "MX"
    },
    {
      "kind": "retail_store",
      "name": "DJI Authorised Store Santa Fe CDMX",
      "address": "Centro Comercial Patio Santa Fe Local SC30, Vasco de Quiroga 200, Zedec Sta Fé, Álvaro Obregón, 01210 Ciudad de México, CDMX",
      "city": "Álvaro Obregón",
      "state": "Ciudad de México",
      "country": "墨西哥",
      "phone": "+525550863052",
      "email": null,
      "website": null,
      "latitude": 19.377328,
      "longitude": -99.255116,
      "sourceContinent": "North America",
      "sourceRegionCode": "MX"
    },
    {
      "kind": "retail_store",
      "name": "DJI Authorised Store ARTZ CDMX",
      "address": "ARTZ Pedregal, Perif. Sur 3720, Local 230A, Jardines del Pedregal, Álvaro Obregón, 01900 CDMX",
      "city": "Álvaro Obregón",
      "state": "Ciudad de México",
      "country": "墨西哥",
      "phone": "+525590525180",
      "email": null,
      "website": null,
      "latitude": 19.314055,
      "longitude": -99.218812,
      "sourceContinent": "North America",
      "sourceRegionCode": "MX"
    },
    {
      "kind": "retail_store",
      "name": "DJI Authorised Store Landmark Guadalajara",
      "address": "Plaza Corporativa, P.º de los Virreyes 45, Puerta de Hierro, 45116 Zapopan, Jal., México",
      "city": "Guadalajara",
      "state": "Jalisco",
      "country": "墨西哥",
      "phone": "+523338358868",
      "email": null,
      "website": null,
      "latitude": 20.707649,
      "longitude": -103.412909,
      "sourceContinent": "North America",
      "sourceRegionCode": "MX"
    },
    {
      "kind": "retail_store",
      "name": "DJI Store - Multiplaza Pacific Panama",
      "address": "Mall Multiplaza Pacific, Local B321-2, Vía Israel, Panamá",
      "city": "Panama",
      "state": "Panama",
      "country": "巴拿马",
      "phone": "(507)  307-5831",
      "email": null,
      "website": null,
      "latitude": 8.985604,
      "longitude": -79.510894,
      "sourceContinent": "North America",
      "sourceRegionCode": "PA"
    },
    {
      "kind": "retail_store",
      "name": "DJI Authorised Store Westfield Sydney",
      "address": "Shop 27-28G/188 Pitt St, Sydney NSW 2000",
      "city": "SYDNEY STREETS",
      "state": "New South Wales",
      "country": "澳大利亚",
      "phone": "0291607375",
      "email": null,
      "website": null,
      "latitude": -33.870303,
      "longitude": 151.207987,
      "sourceContinent": "Oceania",
      "sourceRegionCode": "AU"
    },
    {
      "kind": "retail_store",
      "name": "DJI Authorised Store Westfield Carousel",
      "address": "Shop 1054/1382 Albany Hwy, Cannington WA 6107",
      "city": "Western Australia",
      "state": "Western Australia",
      "country": "澳大利亚",
      "phone": "0870782100",
      "email": null,
      "website": null,
      "latitude": -32.018108,
      "longitude": 115.93715,
      "sourceContinent": "Oceania",
      "sourceRegionCode": "AU"
    },
    {
      "kind": "retail_store",
      "name": "DJI Authorised Store Westfield Bondi",
      "address": "Shop 3022, Level 3/500 Oxford St, Bondi Junction NSW 2022",
      "city": "BONDI",
      "state": "New South Wales",
      "country": "澳大利亚",
      "phone": "0283557852",
      "email": null,
      "website": null,
      "latitude": -33.892547,
      "longitude": 151.249806,
      "sourceContinent": "Oceania",
      "sourceRegionCode": "AU"
    },
    {
      "kind": "retail_store",
      "name": "DJI Authorised Store Melbourne Central",
      "address": "Level 1/211 La Trobe St, Melbourne VIC 3000",
      "city": "MELBOURNE CITY",
      "state": "Victoria",
      "country": "澳大利亚",
      "phone": "0392887879",
      "email": null,
      "website": null,
      "latitude": -37.810232,
      "longitude": 144.963235,
      "sourceContinent": "Oceania",
      "sourceRegionCode": "AU"
    },
    {
      "kind": "retail_store",
      "name": "DJI Authorised Store Westfield Carindale",
      "address": "Westfield Chermside Corner Gympie &, Shop 253B Level 1 Hamilton Rd, Chermside QLD 4032",
      "city": "BRIS CITY CNTRY",
      "state": "Queensland",
      "country": "澳大利亚",
      "phone": "0870782100",
      "email": null,
      "website": null,
      "latitude": -27.502931,
      "longitude": 153.101983,
      "sourceContinent": "Oceania",
      "sourceRegionCode": "AU"
    },
    {
      "kind": "retail_store",
      "name": "DJI Authorised Store Chadstone",
      "address": "1341 Dandenong Road, Chadstone, Victoria, 3148, Australia",
      "city": "MELBOURNE CITY",
      "state": "Victoria",
      "country": "澳大利亚",
      "phone": "0283557852",
      "email": null,
      "website": null,
      "latitude": -37.887085,
      "longitude": 145.081528,
      "sourceContinent": "Oceania",
      "sourceRegionCode": "AU"
    },
    {
      "kind": "retail_store",
      "name": "DJI Authorised Store Westfield Chermside",
      "address": "Westfield Chermside Corner Gympie &, Shop 253B Level 1 Hamilton Rd, Chermside QLD 4032",
      "city": "BRIS CITY CNTRY",
      "state": "Queensland",
      "country": "澳大利亚",
      "phone": "0730777437",
      "email": null,
      "website": null,
      "latitude": -27.383468,
      "longitude": 153.03188,
      "sourceContinent": "Oceania",
      "sourceRegionCode": "AU"
    },
    {
      "kind": "retail_store",
      "name": "DJI Authorised Store Westfield Fountain Gate",
      "address": "Westfield Fountain Gate, Shop 1212/25-55 Overland Dr, Narre Warren VIC 3805",
      "city": "Victoria",
      "state": "Victoria",
      "country": "澳大利亚",
      "phone": "0392887890",
      "email": null,
      "website": null,
      "latitude": -38.01699,
      "longitude": 145.30539,
      "sourceContinent": "Oceania",
      "sourceRegionCode": "AU"
    },
    {
      "kind": "retail_store",
      "name": "DJI Authorised Store Mall Open Plaza Kennedy",
      "address": "Av. Pdte. Kennedy 5601, L5, 7560356 Las Condes, Región Metropolitana, Chile",
      "city": "Las Condes",
      "state": "Region Metropolitana de Santiago",
      "country": "智利",
      "phone": "+56934006988",
      "email": null,
      "website": null,
      "latitude": -33.400194,
      "longitude": -70.575272,
      "sourceContinent": "South America",
      "sourceRegionCode": "CL"
    },
    {
      "kind": "retail_store",
      "name": "DJI Authorised Store Mall Plaza Calama",
      "address": "Av. Balmaceda 3242 Local B-256 / 260, 1394371 Calama, Antofagasta, Chile",
      "city": "Calama",
      "state": "Antofagasta",
      "country": "智利",
      "phone": "+56927498318",
      "email": null,
      "website": null,
      "latitude": -22.448647,
      "longitude": -68.921473,
      "sourceContinent": "South America",
      "sourceRegionCode": "CL"
    },
    {
      "kind": "retail_store",
      "name": "DJI Authorised Store Mall Marina Viña del Mar",
      "address": "Boulevard Mall Marina - 14 Nte. 821, Local 27, 2530899 Viña del Mar, Valparaíso, Chile",
      "city": "Viña del Mar",
      "state": "Valparaiso",
      "country": "智利",
      "phone": "+56933530840",
      "email": null,
      "website": null,
      "latitude": -33.009483,
      "longitude": -71.546978,
      "sourceContinent": "South America",
      "sourceRegionCode": "CL"
    },
    {
      "kind": "retail_store",
      "name": "DJI Authorised Store C.C.Jockey Plaza Lima",
      "address": "Av. Javier Prado este N° 4200 Toda CRL - 203 urb, Santiago de Surco",
      "city": "Lima",
      "state": "Lima",
      "country": "秘鲁",
      "phone": "+51 986 996 017",
      "email": null,
      "website": "https://dji.pe/",
      "latitude": -12.086728,
      "longitude": -76.978917,
      "sourceContinent": "South America",
      "sourceRegionCode": "PE"
    },
    {
      "kind": "retail_store",
      "name": "DJI Authorised Store Plaza San Miguel Lima",
      "address": "Av. la Marina 2000, San Miguel 15088, San Miguel 15086，秘鲁",
      "city": "Lima",
      "state": "Lima",
      "country": "秘鲁",
      "phone": "908844066",
      "email": null,
      "website": null,
      "latitude": -12.07595,
      "longitude": -77.082811,
      "sourceContinent": "South America",
      "sourceRegionCode": "PE"
    },
    {
      "kind": "retail_store",
      "name": "DJI大疆授权体验店(广州正佳广场专区)",
      "address": "广东省广州市天河区天河路228号正佳广场4楼DJI大疆创新",
      "city": "广州市",
      "state": "广东省",
      "country": "中国",
      "phone": "17316834905,020-38330588",
      "email": null,
      "website": null,
      "latitude": 23.132458,
      "longitude": 113.327023,
      "sourceContinent": "Asia",
      "sourceRegionCode": "CN"
    },
    {
      "kind": "retail_store",
      "name": "DJI大疆授权体验店(江门大融城)",
      "address": "广东省江门市蓬江区白石大道166号汇悦城1F003号",
      "city": "江门市",
      "state": "广东省",
      "country": "中国",
      "phone": "17727026003",
      "email": null,
      "website": null,
      "latitude": 22.611639,
      "longitude": 113.083418,
      "sourceContinent": "Asia",
      "sourceRegionCode": "CN"
    },
    {
      "kind": "retail_store",
      "name": "DJI大疆授权专卖店(郑州赛博数码广场店)",
      "address": "河南省郑州市金水区文化路68号赛博数码港M106号",
      "city": "郑州市",
      "state": "河南省",
      "country": "中国",
      "phone": "17629380487",
      "email": "1837222067@qq.com",
      "website": null,
      "latitude": 34.80596,
      "longitude": 113.67282,
      "sourceContinent": "Asia",
      "sourceRegionCode": "CN"
    },
    {
      "kind": "retail_store",
      "name": "DJI大疆旗舰店(上海新天地)",
      "address": "上海市黄浦区马当路119号1楼103、104 2楼202、203",
      "city": "上海市",
      "state": "上海市",
      "country": "中国",
      "phone": "021-53882588",
      "email": null,
      "website": null,
      "latitude": 31.216872,
      "longitude": 121.474942,
      "sourceContinent": "Asia",
      "sourceRegionCode": "CN"
    },
    {
      "kind": "retail_store",
      "name": "DJI大疆授权体验店(广州丽影广场)",
      "address": "广州市海珠区赤岗街道珠影社区新港中路356号一楼EL1-016丽影广场",
      "city": "广州市",
      "state": "广东省",
      "country": "中国",
      "phone": "020-80923474,15302387730",
      "email": "1096285042@qq.com",
      "website": null,
      "latitude": 23.1015,
      "longitude": 113.32851,
      "sourceContinent": "Asia",
      "sourceRegionCode": "CN"
    },
    {
      "kind": "retail_store",
      "name": "DJI大疆授权体验店(深圳龙岗万达)",
      "address": "深圳市龙岗区华南二道1号万达广场(华南城店)1F1031A",
      "city": "深圳市",
      "state": "广东省",
      "country": "中国",
      "phone": "0755-28283830,18138849130",
      "email": null,
      "website": null,
      "latitude": 22.67477,
      "longitude": 114.13113,
      "sourceContinent": "Asia",
      "sourceRegionCode": "CN"
    },
    {
      "kind": "retail_store",
      "name": "DJI大疆授权体验店(昆明五华吾悦)",
      "address": "云南省昆明市五华区王筇路五华吾悦广场1楼1037-1",
      "city": "昆明市",
      "state": "云南省",
      "country": "中国",
      "phone": "18213043671",
      "email": null,
      "website": null,
      "latitude": 25.095607,
      "longitude": 102.664982,
      "sourceContinent": "Asia",
      "sourceRegionCode": "CN"
    },
    {
      "kind": "retail_store",
      "name": "DJI大疆授权体验店(昆明七彩云南第壹城)",
      "address": "朝云街七彩云南第壹城A1-1F016号商铺",
      "city": "昆明市",
      "state": "云南省",
      "country": "中国",
      "phone": "13330528439",
      "email": "543070260@qq.com",
      "website": null,
      "latitude": 24.883807,
      "longitude": 102.83241,
      "sourceContinent": "Asia",
      "sourceRegionCode": "CN"
    },
    {
      "kind": "retail_store",
      "name": "DJI大疆授权体验店(重庆SKLP)",
      "address": "重庆市渝北区龙溪街道红锦大道89号新光天地商场B区6层06041-2号",
      "city": "重庆市",
      "state": "重庆市",
      "country": "中国",
      "phone": "023-67184172",
      "email": null,
      "website": null,
      "latitude": 29.594901,
      "longitude": 106.521397,
      "sourceContinent": "Asia",
      "sourceRegionCode": "CN"
    },
    {
      "kind": "retail_store",
      "name": "DJI大疆授权体验店(青岛新城吾悦)",
      "address": "青岛市黄岛区滨海大道2888号新城吾悦广场A3幢1056-2-2铺位",
      "city": "青岛市",
      "state": "山东省",
      "country": "中国",
      "phone": "17667663932",
      "email": "17860717370@139.com",
      "website": null,
      "latitude": 35.929228,
      "longitude": 120.163996,
      "sourceContinent": "Asia",
      "sourceRegionCode": "CN"
    },
    {
      "kind": "retail_store",
      "name": "DJI大疆授权体验店(济宁万象汇)",
      "address": "济宁市高新区海川路77号万象汇一楼L165D",
      "city": "济宁市",
      "state": "山东省",
      "country": "中国",
      "phone": "19053718117",
      "email": "13854743686@163.com",
      "website": null,
      "latitude": 35.42,
      "longitude": 116.7,
      "sourceContinent": "Asia",
      "sourceRegionCode": "CN"
    },
    {
      "kind": "retail_store",
      "name": "DJI大疆授权体验店(呼和浩特凯德)",
      "address": "呼和浩特市玉泉区鄂尔多斯大街金宇新天地A座凯德广场一层01-02B商铺",
      "city": "呼和浩特市",
      "state": "内蒙古自治区",
      "country": "中国",
      "phone": "13384715867",
      "email": "564433975@qq.com",
      "website": null,
      "latitude": 40.798179,
      "longitude": 111.679627,
      "sourceContinent": "Asia",
      "sourceRegionCode": "CN"
    },
    {
      "kind": "retail_store",
      "name": "DJI大疆专区SIS店(哈尔滨船舶电子城弘瑞丰店)",
      "address": "南通大街288号",
      "city": "哈尔滨市",
      "state": "黑龙江省",
      "country": "中国",
      "phone": "18646005777",
      "email": null,
      "website": null,
      "latitude": 45.775215,
      "longitude": 126.666791,
      "sourceContinent": "Asia",
      "sourceRegionCode": "CN"
    },
    {
      "kind": "retail_store",
      "name": "DJI大疆授权体验店(南通金鹰)",
      "address": "江苏省南通市崇川区工农路57号圆融金鹰国际购物中心1楼F1017-0铺位大疆",
      "city": "南通市",
      "state": "江苏省",
      "country": "中国",
      "phone": "17768681826",
      "email": "zhangqi1@feishangkeji.cn",
      "website": null,
      "latitude": 32.007151,
      "longitude": 120.879634,
      "sourceContinent": "Asia",
      "sourceRegionCode": "CN"
    },
    {
      "kind": "retail_store",
      "name": "DJI大疆授权体验店(长春万象城)",
      "address": "吉林省长春市南关区人民大街3388号华润万象城负一楼B148号",
      "city": "长春市",
      "state": "吉林省",
      "country": "中国",
      "phone": "18043940182",
      "email": null,
      "website": null,
      "latitude": 43.879137,
      "longitude": 125.325857,
      "sourceContinent": "Asia",
      "sourceRegionCode": "CN"
    },
    {
      "kind": "retail_store",
      "name": "DJI大疆授权体验店(西安DT51)",
      "address": "西安市雁塔区高新区唐延路69号西安DT51商场D1011",
      "city": "西安市",
      "state": "陕西省",
      "country": "中国",
      "phone": "18091870631",
      "email": null,
      "website": null,
      "latitude": 34.2,
      "longitude": 108.89,
      "sourceContinent": "Asia",
      "sourceRegionCode": "CN"
    },
    {
      "kind": "retail_store",
      "name": "DJI大疆授权专卖店(合肥庐州意库店)",
      "address": "安徽省合肥市庐阳区杏林街道庐州意库文创园7栋DJI大疆无人机",
      "city": "合肥市",
      "state": "安徽省",
      "country": "中国",
      "phone": "15212443213",
      "email": "1715544833@qq.com",
      "website": null,
      "latitude": 31.90114,
      "longitude": 117.28451,
      "sourceContinent": "Asia",
      "sourceRegionCode": "CN"
    },
    {
      "kind": "retail_store",
      "name": "DJI大疆授权体验店(昆明恒隆广场)",
      "address": "云南省昆明市盘龙区东风东路21号恒隆广场5楼L512商铺",
      "city": "昆明市",
      "state": "云南省",
      "country": "中国",
      "phone": "0871-65129339",
      "email": null,
      "website": null,
      "latitude": 25.036925,
      "longitude": 102.722721,
      "sourceContinent": "Asia",
      "sourceRegionCode": "CN"
    },
    {
      "kind": "retail_store",
      "name": "DJI大疆专区SIS店(济南经二路店)",
      "address": "经二路213号",
      "city": "济南市",
      "state": "山东省",
      "country": "中国",
      "phone": "15168806708",
      "email": null,
      "website": null,
      "latitude": 36.664711,
      "longitude": 116.991769,
      "sourceContinent": "Asia",
      "sourceRegionCode": "CN"
    },
    {
      "kind": "retail_store",
      "name": "DJI大疆授权体验店(南昌万象城)",
      "address": "江西省南昌市红谷滩区学府大道388号万象城商业中心负一楼B143商铺",
      "city": "南昌市",
      "state": "江西省",
      "country": "中国",
      "phone": "13018935832",
      "email": null,
      "website": null,
      "latitude": 28.679319,
      "longitude": 115.960931,
      "sourceContinent": "Asia",
      "sourceRegionCode": "CN"
    },
    {
      "kind": "retail_store",
      "name": "DJI大疆授权体验店(上海凯德晶萃)",
      "address": "上海市黄浦区徐家汇路 268 号01层 29 号",
      "city": "上海市",
      "state": "上海市",
      "country": "中国",
      "phone": "021-53828707",
      "email": "fhkaidejingcui@fhql.co",
      "website": null,
      "latitude": 31.22,
      "longitude": 121.48,
      "sourceContinent": "Asia",
      "sourceRegionCode": "CN"
    },
    {
      "kind": "retail_store",
      "name": "DJI大疆授权体验店(大连罗斯福)",
      "address": "大连市沙河口区西安路139号罗斯\n福广场一楼13010",
      "city": "大连市",
      "state": "辽宁省",
      "country": "中国",
      "phone": "19818934674",
      "email": null,
      "website": null,
      "latitude": 38.913943,
      "longitude": 121.586759,
      "sourceContinent": "Asia",
      "sourceRegionCode": "CN"
    },
    {
      "kind": "retail_store",
      "name": "DJI大疆授权体验店(天津海信广场)",
      "address": "天津市和平区海信广场B1- 002铺位",
      "city": "天津市",
      "state": "天津市",
      "country": "中国",
      "phone": "(022)231982017",
      "email": null,
      "website": null,
      "latitude": 39.118191,
      "longitude": 117.218121,
      "sourceContinent": "Asia",
      "sourceRegionCode": "CN"
    },
    {
      "kind": "retail_store",
      "name": "DJI大疆授权体验店(大庆萨尔图万达)",
      "address": "大庆市萨尔图区东风路15号万达广场一层（1035铺）",
      "city": "大庆市",
      "state": "黑龙江省",
      "country": "中国",
      "phone": "18546665256",
      "email": "1241378827@qq.com",
      "website": null,
      "latitude": 46.594554,
      "longitude": 125.094478,
      "sourceContinent": "Asia",
      "sourceRegionCode": "CN"
    },
    {
      "kind": "retail_store",
      "name": "DJI大疆授权专卖店(重庆长嘉汇)",
      "address": "重庆市南岸区长嘉汇购物公园观景平台L4-15B",
      "city": "重庆市",
      "state": "重庆市",
      "country": "中国",
      "phone": "18166562152",
      "email": "954860544@qq.com",
      "website": null,
      "latitude": 29.583704,
      "longitude": 106.593234,
      "sourceContinent": "Asia",
      "sourceRegionCode": "CN"
    },
    {
      "kind": "retail_store",
      "name": "DJI大疆授权体验店(襄阳民发广场)",
      "address": "湖北省襄阳市樊城区汉江街道长虹路CH1013A",
      "city": "襄阳市",
      "state": "湖北省",
      "country": "中国",
      "phone": "19907271292",
      "email": "wanghu@mc2.cn",
      "website": null,
      "latitude": 32.05,
      "longitude": 112.14,
      "sourceContinent": "Asia",
      "sourceRegionCode": "CN"
    },
    {
      "kind": "retail_store",
      "name": "DJI大疆授权体验店(荆门漳河万达)",
      "address": "湖北省荆门市漳河新区象山大道南端38号万达广场L1041铺位",
      "city": "荆门市",
      "state": "湖北省",
      "country": "中国",
      "phone": "19171518737",
      "email": "jiangfangyu@mc2.cn",
      "website": null,
      "latitude": 30.99,
      "longitude": 112.19,
      "sourceContinent": "Asia",
      "sourceRegionCode": "CN"
    },
    {
      "kind": "retail_store",
      "name": "DJI大疆授权体验店(成都太古里)",
      "address": "四川省成都市锦江区中纱帽街8号成都太古里负1层",
      "city": "成都市",
      "state": "四川省",
      "country": "中国",
      "phone": "19950199190,028-85570750",
      "email": null,
      "website": null,
      "latitude": 30.653231,
      "longitude": 104.083493,
      "sourceContinent": "Asia",
      "sourceRegionCode": "CN"
    },
    {
      "kind": "retail_store",
      "name": "DJI大疆专区专柜(杭州市西溪颐高店)",
      "address": "浙江省杭州市西湖区文三路108号西溪数码港A106-B112",
      "city": "杭州市",
      "state": "浙江省",
      "country": "中国",
      "phone": "13958105665",
      "email": null,
      "website": null,
      "latitude": 30.284238,
      "longitude": 120.150855,
      "sourceContinent": "Asia",
      "sourceRegionCode": "CN"
    },
    {
      "kind": "retail_store",
      "name": "DJI大疆授权体验店(遵义吾悦广场)",
      "address": "贵州省遵义市红花岗区共青一路吾悦广场一楼1008",
      "city": "遵义市",
      "state": "贵州省",
      "country": "中国",
      "phone": "0851-28678839",
      "email": null,
      "website": null,
      "latitude": 27.650594,
      "longitude": 106.885446,
      "sourceContinent": "Asia",
      "sourceRegionCode": "CN"
    },
    {
      "kind": "retail_store",
      "name": "DJI大疆授权体验店(南昌大悦城)",
      "address": "江西省南昌市西湖区抚生南路666号南昌大说城购物中心L1-17号商铺",
      "city": "南昌市",
      "state": "江西省",
      "country": "中国",
      "phone": "17679293602",
      "email": "1750325694@qq.com",
      "website": null,
      "latitude": 28.639428,
      "longitude": 115.868118,
      "sourceContinent": "Asia",
      "sourceRegionCode": "CN"
    },
    {
      "kind": "retail_store",
      "name": "DJI大疆授权体验店(北京龙湖大兴天街)",
      "address": "北京市龙湖大兴天街A栋-1F-01aa",
      "city": "北京市",
      "state": "北京市",
      "country": "中国",
      "phone": "15321905938",
      "email": "136281968@qq.com",
      "website": null,
      "latitude": 39.69,
      "longitude": 116.33,
      "sourceContinent": "Asia",
      "sourceRegionCode": "CN"
    },
    {
      "kind": "retail_store",
      "name": "DJI大疆专区SIS店(西安行政中心店)",
      "address": "陕西省西安市未央区凤城八路保亿隆基中心B座103号",
      "city": "西安市",
      "state": "陕西省",
      "country": "中国",
      "phone": "029-86102905,18909218387",
      "email": "2985480189@qq.com",
      "website": null,
      "latitude": 34.34668,
      "longitude": 108.94949,
      "sourceContinent": "Asia",
      "sourceRegionCode": "CN"
    },
    {
      "kind": "retail_store",
      "name": "DJI大疆授权体验店(广州凯德乐峰)",
      "address": "广东省广州市海珠区工业大道北106-108号乐峰广场B1-S31/S32",
      "city": "广州市",
      "state": "广东省",
      "country": "中国",
      "phone": "13316111813；020-34479460",
      "email": null,
      "website": null,
      "latitude": 23.054782,
      "longitude": 113.762701,
      "sourceContinent": "Asia",
      "sourceRegionCode": "CN"
    },
    {
      "kind": "retail_store",
      "name": "DJI大疆授权体验店(上海长风大悦城)",
      "address": "上海市普陀区大渡河路168弄136号L1-61P铺",
      "city": "上海市",
      "state": "上海市",
      "country": "中国",
      "phone": "52562967",
      "email": "changfengdayuecheng@fhql.com",
      "website": null,
      "latitude": 31.23,
      "longitude": 121.4,
      "sourceContinent": "Asia",
      "sourceRegionCode": "CN"
    },
    {
      "kind": "retail_store",
      "name": "DJI大疆授权体验店(青岛城阳万象汇)",
      "address": "山东省青岛市城阳区正阳中路157号城阳万象汇L119号",
      "city": "青岛市",
      "state": "山东省",
      "country": "中国",
      "phone": "15965576862",
      "email": null,
      "website": null,
      "latitude": 36.079969,
      "longitude": 120.37972,
      "sourceContinent": "Asia",
      "sourceRegionCode": "CN"
    },
    {
      "kind": "retail_store",
      "name": "DJI大疆授权体验店(淮安万象城)",
      "address": "江苏省淮安市清江浦区淮海东路辅路淮安万象城F1  L128 店铺",
      "city": "淮安市",
      "state": "江苏省",
      "country": "中国",
      "phone": "17368110297,0517-89003889",
      "email": "24465836@qq.com",
      "website": null,
      "latitude": 33.6,
      "longitude": 119.04,
      "sourceContinent": "Asia",
      "sourceRegionCode": "CN"
    },
    {
      "kind": "retail_store",
      "name": "DJI大疆授权体验店(咸阳沣西吾悦广场)",
      "address": "陕西省咸阳市秦都区钓台街道统一西路",
      "city": "咸阳市",
      "state": "陕西省",
      "country": "中国",
      "phone": "17782726195",
      "email": "17782726195@189.com",
      "website": null,
      "latitude": 34.308152,
      "longitude": 108.736998,
      "sourceContinent": "Asia",
      "sourceRegionCode": "CN"
    },
    {
      "kind": "retail_store",
      "name": "DJI大疆授权体验店(上海中庚漫游城)",
      "address": "上海市闵行区闵虹路8号L1-123.124铺",
      "city": "上海市",
      "state": "上海市",
      "country": "中国",
      "phone": "17521303061",
      "email": "zhgmanyoucheng@fhql.com",
      "website": null,
      "latitude": 31.14,
      "longitude": 121.4,
      "sourceContinent": "Asia",
      "sourceRegionCode": "CN"
    },
    {
      "kind": "retail_store",
      "name": "DJI大疆授权体验店(苏州常熟印象城)",
      "address": "江苏省常熟市海虞南路88号常熟印象城1楼01-04",
      "city": "苏州市",
      "state": "江苏省",
      "country": "中国",
      "phone": "18936109238",
      "email": "djicsyxc@163.com",
      "website": null,
      "latitude": 31.649253,
      "longitude": 120.759764,
      "sourceContinent": "Asia",
      "sourceRegionCode": "CN"
    },
    {
      "kind": "retail_store",
      "name": "DJI大疆授权体验店(杭州西溪印象城)",
      "address": "杭州市余杭区五常大道一号西溪印象城一期L160-161",
      "city": "杭州市",
      "state": "浙江省",
      "country": "中国",
      "phone": "0571-85857197",
      "email": null,
      "website": null,
      "latitude": 30.247529,
      "longitude": 120.051406,
      "sourceContinent": "Asia",
      "sourceRegionCode": "CN"
    },
    {
      "kind": "retail_store",
      "name": "DJI大疆授权体验店(西安长乐天街)",
      "address": "西安市新城区万寿北路58号龙湖长乐天街B馆-1F-23大疆",
      "city": "西安市",
      "state": "陕西省",
      "country": "中国",
      "phone": "13389289059",
      "email": "13389289059@189.cn",
      "website": null,
      "latitude": 34.28,
      "longitude": 109.01,
      "sourceContinent": "Asia",
      "sourceRegionCode": "CN"
    },
    {
      "kind": "retail_store",
      "name": "DJI大疆授权体验店(上海虹口凯德)",
      "address": "上海市虹口区西江湾路388号L1-11铺",
      "city": "上海市",
      "state": "上海市",
      "country": "中国",
      "phone": "66837710",
      "email": "fhshhongkoukaide@fhql.com",
      "website": null,
      "latitude": 31.28,
      "longitude": 121.48,
      "sourceContinent": "Asia",
      "sourceRegionCode": "CN"
    },
    {
      "kind": "retail_store",
      "name": "DJI大疆授权体验店(太原万象城)",
      "address": "山西省太原市万柏林区长兴路5号华润万象城东门L140C",
      "city": "太原市",
      "state": "山西省",
      "country": "中国",
      "phone": "18534000705",
      "email": null,
      "website": null,
      "latitude": 37.813086,
      "longitude": 112.536036,
      "sourceContinent": "Asia",
      "sourceRegionCode": "CN"
    },
    {
      "kind": "retail_store",
      "name": "DJI大疆授权体验店(西安中大国际)",
      "address": "西安市雁塔区甘家寨中大国际负1楼",
      "city": "西安市",
      "state": "陕西省",
      "country": "中国",
      "phone": "029-89282693/13389239530",
      "email": null,
      "website": null,
      "latitude": 34.221901,
      "longitude": 108.896792,
      "sourceContinent": "Asia",
      "sourceRegionCode": "CN"
    },
    {
      "kind": "retail_store",
      "name": "DJI大疆授权体验店(大连亿合城开发区)",
      "address": "辽宁省大连市金州区马桥子街道金马路208号亿合城一层KYF1011",
      "city": "大连市",
      "state": "辽宁省",
      "country": "中国",
      "phone": "13654117500",
      "email": null,
      "website": null,
      "latitude": 39.04826,
      "longitude": 121.78184,
      "sourceContinent": "Asia",
      "sourceRegionCode": "CN"
    },
    {
      "kind": "retail_store",
      "name": "DJI大疆授权体验店(惠州大亚湾万达)",
      "address": "广东省惠州市惠阳区龙海二路38号万达广场1楼1076铺",
      "city": "惠州市",
      "state": "广东省",
      "country": "中国",
      "phone": "18028455800",
      "email": "18583101000@163.com",
      "website": null,
      "latitude": 22.761648,
      "longitude": 114.486345,
      "sourceContinent": "Asia",
      "sourceRegionCode": "CN"
    },
    {
      "kind": "retail_store",
      "name": "DJI大疆授权体验店(大连恒隆)",
      "address": "辽宁省大连市西岗区五四路66号\n恒隆广场B1层B09店铺",
      "city": "大连市",
      "state": "辽宁省",
      "country": "中国",
      "phone": "15242522665",
      "email": null,
      "website": null,
      "latitude": 38.906257,
      "longitude": 121.609536,
      "sourceContinent": "Asia",
      "sourceRegionCode": "CN"
    },
    {
      "kind": "retail_store",
      "name": "DJI大疆授权体验店(苏州万象天地)",
      "address": "江苏省苏州市姑苏区上塘街290号苏州万象天地1楼L125N大疆",
      "city": "苏州市",
      "state": "江苏省",
      "country": "中国",
      "phone": "17706211995",
      "email": "lulu.li@xgngroup.cn",
      "website": null,
      "latitude": 31.310681,
      "longitude": 120.598741,
      "sourceContinent": "Asia",
      "sourceRegionCode": "CN"
    },
    {
      "kind": "retail_store",
      "name": "DJI大疆授权体验店(南京江北虹悦城)",
      "address": "江苏省南京市浦口区龙华路1号江北虹悦城1F-28",
      "city": "南京市",
      "state": "江苏省",
      "country": "中国",
      "phone": "025-58195996/18120147650",
      "email": null,
      "website": null,
      "latitude": 32.066948,
      "longitude": 118.640049,
      "sourceContinent": "Asia",
      "sourceRegionCode": "CN"
    },
    {
      "kind": "retail_store",
      "name": "DJI大疆专区SIS店(绍兴市颐高数码店)",
      "address": "绍兴越城区二环北路颐高数码广场负一楼D1-A",
      "city": "绍兴市",
      "state": "浙江省",
      "country": "中国",
      "phone": "13777336422/18057550007",
      "email": null,
      "website": null,
      "latitude": 30.0262,
      "longitude": 120.577274,
      "sourceContinent": "Asia",
      "sourceRegionCode": "CN"
    },
    {
      "kind": "retail_store",
      "name": "DJI大疆授权体验店(温州万象城)",
      "address": "瓯海区温瑞大道999号华润万象城5楼L523a",
      "city": "温州市",
      "state": "浙江省",
      "country": "中国",
      "phone": "0577-86007616",
      "email": null,
      "website": null,
      "latitude": 27.953454,
      "longitude": 120.684099,
      "sourceContinent": "Asia",
      "sourceRegionCode": "CN"
    },
    {
      "kind": "retail_store",
      "name": "DJI大疆授权专卖店(益阳桃花仑西路店)",
      "address": "湖南省益阳市赫山区桃花仑西路DJI大疆（益阳市教育局旁）",
      "city": "益阳市",
      "state": "湖南省",
      "country": "中国",
      "phone": "19152281888",
      "email": "121390255@qq.com",
      "website": null,
      "latitude": 28.586515,
      "longitude": 112.353394,
      "sourceContinent": "Asia",
      "sourceRegionCode": "CN"
    },
    {
      "kind": "retail_store",
      "name": "DJI大疆授权体验店(绍兴上虞万和城)",
      "address": "浙江省绍兴市上虞区市民大道688号万和城1F-033铺位",
      "city": "绍兴市",
      "state": "浙江省",
      "country": "中国",
      "phone": "17706756017",
      "email": "chenyihan@mc2.cn",
      "website": null,
      "latitude": 30.04,
      "longitude": 120.88,
      "sourceContinent": "Asia",
      "sourceRegionCode": "CN"
    },
    {
      "kind": "retail_store",
      "name": "DJI大疆哈苏概念店(杭州大厦)",
      "address": "浙江省杭州市拱墅区华浙广场2、3号杭州大厦D1楼D122大疆哈苏专柜",
      "city": "杭州市",
      "state": "浙江省",
      "country": "中国",
      "phone": "0571-85857815",
      "email": null,
      "website": null,
      "latitude": 30.27281,
      "longitude": 120.161483,
      "sourceContinent": "Asia",
      "sourceRegionCode": "CN"
    },
    {
      "kind": "retail_store",
      "name": "DJI大疆授权体验店(太原吾悦广场)",
      "address": "山西省太原市万柏林区千峰北路吾悦广场L1-1015",
      "city": "太原市",
      "state": "山西省",
      "country": "中国",
      "phone": "19035110367",
      "email": null,
      "website": null,
      "latitude": 37.877973,
      "longitude": 112.526132,
      "sourceContinent": "Asia",
      "sourceRegionCode": "CN"
    },
    {
      "kind": "retail_store",
      "name": "DJI大疆授权体验店(宿迁吾悦广场)",
      "address": "江苏省宿迁市宿城区青海湖西路222号宿迁宿城吾悦广场F1 大疆店铺",
      "city": "宿迁市",
      "state": "江苏省",
      "country": "中国",
      "phone": "0527-83699373,18012116786",
      "email": "1062169793@qq.com",
      "website": null,
      "latitude": 33.9632,
      "longitude": 118.2951,
      "sourceContinent": "Asia",
      "sourceRegionCode": "CN"
    },
    {
      "kind": "retail_store",
      "name": "DJI大疆授权体验店(北京西北旺万象汇)",
      "address": "北京市海淀区马连洼街道西北旺万象汇1层L130",
      "city": "北京市",
      "state": "北京市",
      "country": "中国",
      "phone": "18001053623",
      "email": null,
      "website": null,
      "latitude": 40.055659,
      "longitude": 116.265248,
      "sourceContinent": "Asia",
      "sourceRegionCode": "CN"
    },
    {
      "kind": "retail_store",
      "name": "DJI大疆授权体验店(合肥瑶海天地)",
      "address": "安徽省合肥市瑶海区铜陵路街道长江东路YH202211号B地块、C地块-L114铺",
      "city": "合肥市",
      "state": "安徽省",
      "country": "中国",
      "phone": "13645191195",
      "email": "heyinghua@feishangkeji.cn",
      "website": null,
      "latitude": 31.869042,
      "longitude": 117.330557,
      "sourceContinent": "Asia",
      "sourceRegionCode": "CN"
    },
    {
      "kind": "retail_store",
      "name": "DJI大疆授权体验店(青岛融创茂)",
      "address": "山东省青岛市黄岛区滨海大道青岛融创茂1楼1009A",
      "city": "青岛市",
      "state": "山东省",
      "country": "中国",
      "phone": "18661760682",
      "email": "2582987782@qq.com",
      "website": null,
      "latitude": 35.90509,
      "longitude": 120.100929,
      "sourceContinent": "Asia",
      "sourceRegionCode": "CN"
    },
    {
      "kind": "retail_store",
      "name": "DJI大疆授权体验店(黔东南凯里国贸)",
      "address": "贵州省黔东南苗族侗族自治州凯里市北京西路21号国贸购物中心1F",
      "city": "黔东南苗族侗族自治州",
      "state": "贵州省",
      "country": "中国",
      "phone": "18985619016",
      "email": "2641080493@qq.com",
      "website": null,
      "latitude": 26.580681,
      "longitude": 107.973153,
      "sourceContinent": "Asia",
      "sourceRegionCode": "CN"
    },
    {
      "kind": "retail_store",
      "name": "DJI大疆专区SIS店(大同市云中路店)",
      "address": "山西省大同市平城区云中路849号大疆创新专营店",
      "city": "大同市",
      "state": "山西省",
      "country": "中国",
      "phone": "13934455223",
      "email": null,
      "website": null,
      "latitude": 40.083567,
      "longitude": 113.289031,
      "sourceContinent": "Asia",
      "sourceRegionCode": "CN"
    },
    {
      "kind": "retail_store",
      "name": "DJI大疆授权体验店(孝感万达)",
      "address": "湖北省孝感市孝南区孝武大道路特1号孝感星河天街万达广场1F层1008号商铺",
      "city": "孝感市",
      "state": "湖北省",
      "country": "中国",
      "phone": "13135640201",
      "email": "504982102@qq.com",
      "website": null,
      "latitude": 30.901226,
      "longitude": 113.956413,
      "sourceContinent": "Asia",
      "sourceRegionCode": "CN"
    },
    {
      "kind": "retail_store",
      "name": "DJI大疆授权体验店(沈阳皇姑万象汇)",
      "address": "辽宁省沈阳市皇姑区崇山路18号皇姑万象汇 一楼158",
      "city": "沈阳市",
      "state": "辽宁省",
      "country": "中国",
      "phone": "15734011889",
      "email": null,
      "website": null,
      "latitude": 41.795608,
      "longitude": 123.372968,
      "sourceContinent": "Asia",
      "sourceRegionCode": "CN"
    },
    {
      "kind": "retail_store",
      "name": "DJI大疆授权体验店(宜昌国贸)",
      "address": "湖北省宜昌市西陵区东山大道106号国贸商场北一楼1026号DJI大疆",
      "city": "宜昌市",
      "state": "湖北省",
      "country": "中国",
      "phone": "0717-6216188,17764250668",
      "email": null,
      "website": null,
      "latitude": 30.71421,
      "longitude": 111.2908,
      "sourceContinent": "Asia",
      "sourceRegionCode": "CN"
    },
    {
      "kind": "retail_store",
      "name": "DJI大疆专区专柜(开封省府西街店)",
      "address": "河南省开封市鼓楼区省府西街鼓楼区检察院对面DJI大疆开封市授权专区",
      "city": "开封市",
      "state": "河南省",
      "country": "中国",
      "phone": "13903780447",
      "email": "crystalsky77@163.com",
      "website": null,
      "latitude": 34.4746,
      "longitude": 114.2046,
      "sourceContinent": "Asia",
      "sourceRegionCode": "CN"
    },
    {
      "kind": "retail_store",
      "name": "DJI大疆授权体验店(上海世博天地)",
      "address": "上钢新村街道世博大道1467号的世博天地C地上 一 层L104号",
      "city": "上海市",
      "state": "上海市",
      "country": "中国",
      "phone": "18917072050",
      "email": "shibotiandi@fhql.com",
      "website": null,
      "latitude": 31.19,
      "longitude": 121.5,
      "sourceContinent": "Asia",
      "sourceRegionCode": "CN"
    },
    {
      "kind": "retail_store",
      "name": "DJI大疆授权体验店(西宁海湖万达)",
      "address": "青海省西宁市城西区广场路1号海湖万达广场层1031号",
      "city": "西宁市",
      "state": "青海省",
      "country": "中国",
      "phone": "19997487750",
      "email": "19997487750@189.com",
      "website": null,
      "latitude": 36.642644,
      "longitude": 101.715863,
      "sourceContinent": "Asia",
      "sourceRegionCode": "CN"
    },
    {
      "kind": "retail_store",
      "name": "DJI大疆授权体验店(武汉壹方天地)",
      "address": "湖北省武汉市江岸区武汉天地壹方南馆购物中心2F-20号",
      "city": "武汉市",
      "state": "湖北省",
      "country": "中国",
      "phone": "18162737107；027-82357789",
      "email": null,
      "website": null,
      "latitude": 30.552535,
      "longitude": 114.293635,
      "sourceContinent": "Asia",
      "sourceRegionCode": "CN"
    },
    {
      "kind": "retail_store",
      "name": "DJI大疆专区SIS店(长沙科佳摄影城店)",
      "address": "湖南省长沙市芙蓉区解放东路46号湖南摄影城（科佳摄影城）1楼1号-2号",
      "city": "长沙市",
      "state": "湖南省",
      "country": "中国",
      "phone": "15073177769,82295958",
      "email": "nimeijia@126.com",
      "website": null,
      "latitude": 28.191108,
      "longitude": 113.009392,
      "sourceContinent": "Asia",
      "sourceRegionCode": "CN"
    },
    {
      "kind": "retail_store",
      "name": "DJI大疆授权体验店(衡阳蒸湘万达)",
      "address": "湖南省衡阳市蒸湘区幸福路联合街道22号一层1059号铺",
      "city": "衡阳市",
      "state": "湖南省",
      "country": "中国",
      "phone": "19188902702",
      "email": "xiejinsheng@mc2.cn",
      "website": null,
      "latitude": 26.89,
      "longitude": 112.6,
      "sourceContinent": "Asia",
      "sourceRegionCode": "CN"
    },
    {
      "kind": "retail_store",
      "name": "DJI大疆授权体验店(郑州二七万达)",
      "address": "河南省郑州市二七区大学南路万达广场1楼DJI大疆1053号",
      "city": "郑州市",
      "state": "河南省",
      "country": "中国",
      "phone": "17788165165",
      "email": "3202867626@qq.com",
      "website": null,
      "latitude": 34.724319,
      "longitude": 113.649102,
      "sourceContinent": "Asia",
      "sourceRegionCode": "CN"
    },
    {
      "kind": "retail_store",
      "name": "DJI大疆授权体验店(唐山路南万达)",
      "address": "新华东道100号万达广场一层1F-1035-B号",
      "city": "唐山市",
      "state": "河北省",
      "country": "中国",
      "phone": "15032595051",
      "email": null,
      "website": null,
      "latitude": 39.624244,
      "longitude": 90,
      "sourceContinent": "Asia",
      "sourceRegionCode": "CN"
    },
    {
      "kind": "retail_store",
      "name": "DJI大疆授权体验店(宜兴八佰伴)",
      "address": "江苏省无锡市宜兴市解放东路288号L1013",
      "city": "无锡市",
      "state": "江苏省",
      "country": "中国",
      "phone": "18961593790",
      "email": "18961593790@qq.com",
      "website": null,
      "latitude": 31.358368,
      "longitude": 119.843468,
      "sourceContinent": "Asia",
      "sourceRegionCode": "CN"
    },
    {
      "kind": "retail_store",
      "name": "DJI大疆授权体验店(南昌龙湖天街)",
      "address": "江西省南昌市青山湖区解放东路1999号龙湖天街A1F29，A1F30aa，A1F30bb号商铺",
      "city": "南昌市",
      "state": "江西省",
      "country": "中国",
      "phone": "18379119805",
      "email": "2235721862@qq.com",
      "website": null,
      "latitude": 28.652322,
      "longitude": 115.964207,
      "sourceContinent": "Asia",
      "sourceRegionCode": "CN"
    },
    {
      "kind": "retail_store",
      "name": "DJI大疆授权体验专区(长治万达)",
      "address": "山西省长治市潞州区英雄北路222号万达广场1F-1027中空",
      "city": "长治市",
      "state": "山西省",
      "country": "中国",
      "phone": "13653668310",
      "email": "13653668310@139.com",
      "website": null,
      "latitude": 36.224862,
      "longitude": 113.134913,
      "sourceContinent": "Asia",
      "sourceRegionCode": "CN"
    },
    {
      "kind": "retail_store",
      "name": "DJI大疆授权专卖店(重庆杨家坪步行街)",
      "address": "重庆市九龙坡区杨家坪街道西郊路1号1-14，1-15号",
      "city": "重庆市",
      "state": "重庆市",
      "country": "中国",
      "phone": "15523455238",
      "email": "646438223@qq.com",
      "website": null,
      "latitude": 29.551158,
      "longitude": 106.51055,
      "sourceContinent": "Asia",
      "sourceRegionCode": "CN"
    },
    {
      "kind": "retail_store",
      "name": "DJI大疆授权体验店(滨州万达)",
      "address": "山东省滨州市滨城区黄河十二路890号万达广场一层YX-HD-ZT-001号",
      "city": "滨州市",
      "state": "山东省",
      "country": "中国",
      "phone": "17661173415",
      "email": null,
      "website": null,
      "latitude": 37.38162,
      "longitude": 118.02441,
      "sourceContinent": "Asia",
      "sourceRegionCode": "CN"
    },
    {
      "kind": "retail_store",
      "name": "DJI大疆授权体验店(重庆江北国际机场)",
      "address": "重庆江北国际机场T3A航站楼出发大厅T3A-L410、L411号（3F值机岛后）",
      "city": "重庆市",
      "state": "重庆市",
      "country": "中国",
      "phone": "17784239951",
      "email": "794856239@qq.com",
      "website": null,
      "latitude": 29.709206,
      "longitude": 106.654248,
      "sourceContinent": "Asia",
      "sourceRegionCode": "CN"
    },
    {
      "kind": "retail_store",
      "name": "DJI大疆专区SIS店(深圳华强北电子世界影客)",
      "address": "深圳市福田区华强北 新华强电子二店3楼Q3B202",
      "city": "深圳市",
      "state": "广东省",
      "country": "中国",
      "phone": "13631630571",
      "email": null,
      "website": null,
      "latitude": 22.548231,
      "longitude": 114.092891,
      "sourceContinent": "Asia",
      "sourceRegionCode": "CN"
    },
    {
      "kind": "retail_store",
      "name": "DJI大疆授权体验店(上海百联又一城)",
      "address": "上海市杨浦区淞沪路8号B1-03铺位",
      "city": "上海市",
      "state": "上海市",
      "country": "中国",
      "phone": "15097766392",
      "email": "503388639@qq.com",
      "website": null,
      "latitude": 31.31,
      "longitude": 121.52,
      "sourceContinent": "Asia",
      "sourceRegionCode": "CN"
    },
    {
      "kind": "retail_store",
      "name": "DJI大疆授权体验店(海口友谊南海城)",
      "address": "海南省海口市龙华区南海大道友谊南海城030号商铺大疆体验店",
      "city": "海口市",
      "state": "海南省",
      "country": "中国",
      "phone": "18189776075",
      "email": null,
      "website": null,
      "latitude": 19.996374,
      "longitude": 110.30418,
      "sourceContinent": "Asia",
      "sourceRegionCode": "CN"
    },
    {
      "kind": "retail_store",
      "name": "DJI大疆授权专卖店(广州友谊商店国金店)",
      "address": "广州市天河区猎德街道珠江西路5号广州友谊商场国金店M层大疆体验专区",
      "city": "广州市",
      "state": "广东省",
      "country": "中国",
      "phone": "18928743156",
      "email": "yqingfei@gzsuomeng.com",
      "website": null,
      "latitude": 23.118525,
      "longitude": 113.322689,
      "sourceContinent": "Asia",
      "sourceRegionCode": "CN"
    },
    {
      "kind": "retail_store",
      "name": "DJI大疆授权体验店(沈阳京东MALL)",
      "address": "辽宁省沈阳市大东区滂江街28号大东区龙之梦京东MALL",
      "city": "沈阳市",
      "state": "辽宁省",
      "country": "中国",
      "phone": "13940460865",
      "email": "1524051370@qq.com",
      "website": null,
      "latitude": 41.8,
      "longitude": 123.4841,
      "sourceContinent": "Asia",
      "sourceRegionCode": "CN"
    },
    {
      "kind": "retail_store",
      "name": "DJI大疆授权体验店(广州白云万象汇)",
      "address": "广东省广州市白云区机场路1399号百信广场西区一楼L1007DJI大疆创新",
      "city": "广州市",
      "state": "广东省",
      "country": "中国",
      "phone": "19102064145,020-36487549",
      "email": null,
      "website": null,
      "latitude": 23.193398,
      "longitude": 113.262088,
      "sourceContinent": "Asia",
      "sourceRegionCode": "CN"
    },
    {
      "kind": "retail_store",
      "name": "DJI大疆授权体验店(杭州大悦城)",
      "address": "浙江省杭州市拱墅区隐秀路1号大悦城1楼L1-25&26铺位",
      "city": "杭州市",
      "state": "浙江省",
      "country": "中国",
      "phone": "(0571) 8873 3820",
      "email": null,
      "website": null,
      "latitude": 30.296287,
      "longitude": 120.122557,
      "sourceContinent": "Asia",
      "sourceRegionCode": "CN"
    },
    {
      "kind": "retail_store",
      "name": "DJI大疆授权体验店(深圳PAMALL)",
      "address": "深圳市福田区益田路5033号PA MALL 平安金融中心NLM02",
      "city": "深圳市",
      "state": "广东省",
      "country": "中国",
      "phone": "0755-82522909,18123928727",
      "email": "hezhuowei@hengweixin.com.cn",
      "website": null,
      "latitude": 22.53318,
      "longitude": 114.05564,
      "sourceContinent": "Asia",
      "sourceRegionCode": "CN"
    },
    {
      "kind": "retail_store",
      "name": "DJI大疆授权体验店(长沙松雅湖吾悦广场)",
      "address": "湖南省长沙县望仙东路489号吾悦广场5栋149室1063号",
      "city": "长沙市",
      "state": "湖南省",
      "country": "中国",
      "phone": "0731-85215330,18163769107",
      "email": "1307990998@qq.com",
      "website": null,
      "latitude": 28.257949,
      "longitude": 113.108084,
      "sourceContinent": "Asia",
      "sourceRegionCode": "CN"
    },
    {
      "kind": "retail_store",
      "name": "DJI大疆授权体验店(北京通州万达)",
      "address": "北京市通州区万达广场1层1003A号DJI大疆",
      "city": "北京市",
      "state": "北京市",
      "country": "中国",
      "phone": "15321932905",
      "email": null,
      "website": null,
      "latitude": 39.906887,
      "longitude": 116.642803,
      "sourceContinent": "Asia",
      "sourceRegionCode": "CN"
    },
    {
      "kind": "retail_store",
      "name": "DJI大疆专区SIS店(西安和平门店)",
      "address": "陕西省西安市碑林区雁塔北路78号西光摄影器材",
      "city": "西安市",
      "state": "陕西省",
      "country": "中国",
      "phone": "15389188742",
      "email": null,
      "website": null,
      "latitude": 34.248127,
      "longitude": 108.963586,
      "sourceContinent": "Asia",
      "sourceRegionCode": "CN"
    },
    {
      "kind": "retail_store",
      "name": "DJI大疆授权体验店(丽水银泰城)",
      "address": "浙江省丽水市莲都区银泰城L1007",
      "city": "丽水市",
      "state": "浙江省",
      "country": "中国",
      "phone": "0578-2121601",
      "email": null,
      "website": null,
      "latitude": 28.438154,
      "longitude": 119.926141,
      "sourceContinent": "Asia",
      "sourceRegionCode": "CN"
    },
    {
      "kind": "retail_store",
      "name": "DJI大疆授权体验店(温州印象城)",
      "address": "浙江省温州市鹿城区南汇街道府东路333号温州印象城商业中心D29-L1-25号",
      "city": "温州市",
      "state": "浙江省",
      "country": "中国",
      "phone": "0577-86081787",
      "email": null,
      "website": null,
      "latitude": 31.06048,
      "longitude": 121.22252,
      "sourceContinent": "Asia",
      "sourceRegionCode": "CN"
    },
    {
      "kind": "retail_store",
      "name": "DJI大疆授权体验店(广州番禺奥园)",
      "address": "广东省广州市番禺区福德路281号奥园广场106-05号",
      "city": "广州市",
      "state": "广东省",
      "country": "中国",
      "phone": "18126758720",
      "email": "877085104@qq.com",
      "website": null,
      "latitude": 22.93,
      "longitude": 113.3642,
      "sourceContinent": "Asia",
      "sourceRegionCode": "CN"
    },
    {
      "kind": "retail_store",
      "name": "DJI大疆授权体验店(佛山岭南站)",
      "address": "广东省佛山市禅城区祖庙街道祖庙路29号岭南站一楼013B号大疆无人机授权体验店",
      "city": "佛山市",
      "state": "广东省",
      "country": "中国",
      "phone": "13380227750",
      "email": null,
      "website": null,
      "latitude": 23.107877,
      "longitude": 113.148242,
      "sourceContinent": "Asia",
      "sourceRegionCode": "CN"
    },
    {
      "kind": "retail_store",
      "name": "DJI大疆授权体验店(太原公元时代城)",
      "address": "山西省太原市万柏林区迎泽西大街120号公元时代城购物中心F1-017",
      "city": "太原市",
      "state": "山西省",
      "country": "中国",
      "phone": "15803417701",
      "email": "623416592@qq.com",
      "website": null,
      "latitude": 37.862736,
      "longitude": 112.515033,
      "sourceContinent": "Asia",
      "sourceRegionCode": "CN"
    },
    {
      "kind": "retail_store",
      "name": "DJI大疆授权体验店(西宁王府井百货中心)",
      "address": "青海省西宁市城中区西大街42号西宁王府井百货中心店B馆B1-005",
      "city": "西宁市",
      "state": "青海省",
      "country": "中国",
      "phone": "18195616683",
      "email": null,
      "website": null,
      "latitude": 36.62768,
      "longitude": 36.62768,
      "sourceContinent": "Asia",
      "sourceRegionCode": "CN"
    },
    {
      "kind": "retail_store",
      "name": "DJI大疆授权体验店(沈阳长白万象汇)",
      "address": "辽宁省沈阳市和平区长白北路199号一楼L137",
      "city": "沈阳市",
      "state": "辽宁省",
      "country": "中国",
      "phone": "15712478801",
      "email": null,
      "website": null,
      "latitude": 41.747575,
      "longitude": 123.394783,
      "sourceContinent": "Asia",
      "sourceRegionCode": "CN"
    },
    {
      "kind": "retail_store",
      "name": "DJI大疆授权体验店(益阳万达广场)",
      "address": "湖南省益阳市赫山区益阳大道与罗溪路交汇处益阳赫山万达广场1A026",
      "city": "益阳市",
      "state": "湖南省",
      "country": "中国",
      "phone": "0737-6670605,17363765255",
      "email": "1027369709@qq.com",
      "website": null,
      "latitude": 28.571165,
      "longitude": 112.380989,
      "sourceContinent": "Asia",
      "sourceRegionCode": "CN"
    },
    {
      "kind": "retail_store",
      "name": "DJI大疆授权专卖店(北京首钢园店)",
      "address": "北京市石景山区五一剧场路1号院2号楼B2座1层DJI大疆店",
      "city": "北京市",
      "state": "北京市",
      "country": "中国",
      "phone": "13601248598",
      "email": "anhq@163.com",
      "website": null,
      "latitude": 39.925294,
      "longitude": 116.162634,
      "sourceContinent": "Asia",
      "sourceRegionCode": "CN"
    },
    {
      "kind": "retail_store",
      "name": "DJI大疆授权体验店(无锡八佰伴中心)",
      "address": "江苏省无锡市锡山区锡沪路东亭西段1号八佰伴中心一楼1008号",
      "city": "无锡市",
      "state": "江苏省",
      "country": "中国",
      "phone": "13382209197",
      "email": null,
      "website": null,
      "latitude": 31.572906,
      "longitude": 120.30274,
      "sourceContinent": "Asia",
      "sourceRegionCode": "CN"
    },
    {
      "kind": "retail_store",
      "name": "DJI大疆授权体验店(曲靖万达)",
      "address": "云南省曲靖开发区翠峰路83号万达广场【1A】层【1A016】号",
      "city": "曲靖市",
      "state": "云南省",
      "country": "中国",
      "phone": "0874-3956339",
      "email": null,
      "website": null,
      "latitude": 25.519474,
      "longitude": 103.757598,
      "sourceContinent": "Asia",
      "sourceRegionCode": "CN"
    },
    {
      "kind": "retail_store",
      "name": "DJI大疆授权体验店(自贡华商爱琴海)",
      "address": "四川省自贡市自流井区华商北路155号F1-F1S003",
      "city": "自贡市",
      "state": "四川省",
      "country": "中国",
      "phone": "19182822512",
      "email": "19182822512@189.cn",
      "website": null,
      "latitude": 29.32,
      "longitude": 104.77,
      "sourceContinent": "Asia",
      "sourceRegionCode": "CN"
    },
    {
      "kind": "retail_store",
      "name": "DJI大疆授权专卖店(兰州市天水南路店)",
      "address": "天水南路216号",
      "city": "兰州市",
      "state": "甘肃省",
      "country": "中国",
      "phone": "18198017730",
      "email": null,
      "website": null,
      "latitude": 36.043259,
      "longitude": 103.85428,
      "sourceContinent": "Asia",
      "sourceRegionCode": "CN"
    },
    {
      "kind": "retail_store",
      "name": "DJI大疆授权体验店(潍坊泰华城)",
      "address": "山东省潍坊市奎文区东风东街360号泰华城新天地一层XL157b,XL158DJL大疆",
      "city": "潍坊市",
      "state": "山东省",
      "country": "中国",
      "phone": "18005366321/15589657586",
      "email": null,
      "website": null,
      "latitude": 36.704352,
      "longitude": 119.105551,
      "sourceContinent": "Asia",
      "sourceRegionCode": "CN"
    },
    {
      "kind": "retail_store",
      "name": "DJI大疆授权体验店(周口万顺达)",
      "address": "河南省周口市川汇区七一路五一路交叉口万顺达一楼南门入口",
      "city": "周口市",
      "state": "河南省",
      "country": "中国",
      "phone": "15138335910",
      "email": null,
      "website": null,
      "latitude": 33.623786,
      "longitude": 114.655002,
      "sourceContinent": "Asia",
      "sourceRegionCode": "CN"
    },
    {
      "kind": "retail_store",
      "name": "DJI大疆授权体验店(成都万象城)",
      "address": "四川省成都市成华区双庆路8号成都华润万象城C馆一楼165号",
      "city": "成都市",
      "state": "四川省",
      "country": "中国",
      "phone": "15387641600,028-84451337",
      "email": null,
      "website": null,
      "latitude": 30.656346,
      "longitude": 104.10325,
      "sourceContinent": "Asia",
      "sourceRegionCode": "CN"
    },
    {
      "kind": "retail_store",
      "name": "DJI大疆授权体验店(大理泰业国际广场)",
      "address": "云南省大理市建设路21号昆百大泰业城1楼中庭服务台旁A136号铺",
      "city": "大理白族自治州",
      "state": "云南省",
      "country": "中国",
      "phone": "19116190572",
      "email": null,
      "website": null,
      "latitude": 25.591842,
      "longitude": 100.23271,
      "sourceContinent": "Asia",
      "sourceRegionCode": "CN"
    },
    {
      "kind": "retail_store",
      "name": "DJI大疆授权体验店(福州中骏世界城)",
      "address": "福建省福州市仓山区利民路11号中骏世界城一楼M122单元商铺",
      "city": "福州市",
      "state": "福建省",
      "country": "中国",
      "phone": "13007169978,0591-87502126",
      "email": "502304708@qq.com",
      "website": null,
      "latitude": 26.034763,
      "longitude": 119.31735,
      "sourceContinent": "Asia",
      "sourceRegionCode": "CN"
    },
    {
      "kind": "retail_store",
      "name": "DJI大疆专区专柜(昆明佰腾数码广场新世界店)",
      "address": "云南省昆明市佰腾数码广场A座105",
      "city": "昆明市",
      "state": "云南省",
      "country": "中国",
      "phone": "13759558828",
      "email": null,
      "website": null,
      "latitude": 25.057562,
      "longitude": 102.70609,
      "sourceContinent": "Asia",
      "sourceRegionCode": "CN"
    },
    {
      "kind": "retail_store",
      "name": "DJI大疆授权体验店(广州天河领展)",
      "address": "广州市天河区马场路36号领展广场一楼120-1a",
      "city": "广州市",
      "state": "广东省",
      "country": "中国",
      "phone": "15360546530,(020)83629214",
      "email": "huangfeng@hengweixin.com.cn",
      "website": null,
      "latitude": 23.129783,
      "longitude": 113.350619,
      "sourceContinent": "Asia",
      "sourceRegionCode": "CN"
    },
    {
      "kind": "retail_store",
      "name": "DJI大疆授权体验店(杭州亚奥万象天地)",
      "address": "浙江省杭州市萧山区盈丰街道亚奥城北区1-6、1-7号 S104号铺",
      "city": "杭州市",
      "state": "浙江省",
      "country": "中国",
      "phone": "18069881055；0571-81631518",
      "email": "loufeifu@mc2.cn",
      "website": null,
      "latitude": 30.26,
      "longitude": 120.26,
      "sourceContinent": "Asia",
      "sourceRegionCode": "CN"
    },
    {
      "kind": "retail_store",
      "name": "DJI大疆专区SIS店(成都华菱摄影城富卓店)",
      "address": "四川省成都市金牛区文家巷12号华凌摄影城1楼A2",
      "city": "成都市",
      "state": "四川省",
      "country": "中国",
      "phone": "13982155220",
      "email": null,
      "website": null,
      "latitude": 30.683782,
      "longitude": 104.044756,
      "sourceContinent": "Asia",
      "sourceRegionCode": "CN"
    },
    {
      "kind": "retail_store",
      "name": "DJI大疆授权体验店(重庆时代天街E馆)",
      "address": "渝中区大坪长江路174号龙湖时代天街E馆2F-36",
      "city": "重庆市",
      "state": "重庆市",
      "country": "中国",
      "phone": "18523672079,023-63525867",
      "email": null,
      "website": null,
      "latitude": 29.543761,
      "longitude": 106.513975,
      "sourceContinent": "Asia",
      "sourceRegionCode": "CN"
    },
    {
      "kind": "retail_store",
      "name": "DJI大疆授权体验店(北京昌平悦荟)",
      "address": "北京悦荟昌平区南环路10号L1001单元",
      "city": "北京市",
      "state": "北京市",
      "country": "中国",
      "phone": "13161289067",
      "email": "1334568600@qq.com",
      "website": null,
      "latitude": 40.22,
      "longitude": 116.25,
      "sourceContinent": "Asia",
      "sourceRegionCode": "CN"
    },
    {
      "kind": "retail_store",
      "name": "DJI大疆授权体验店(常州购物中心)",
      "address": "江苏省常州市天宁区延陵西路1-7号购物中心1楼大疆",
      "city": "常州市",
      "state": "江苏省",
      "country": "中国",
      "phone": "15366822797",
      "email": null,
      "website": null,
      "latitude": 31.78228,
      "longitude": 119.968483,
      "sourceContinent": "Asia",
      "sourceRegionCode": "CN"
    },
    {
      "kind": "retail_store",
      "name": "DJI大疆专区SIS店(银川文化东街店)",
      "address": "宁夏银川市兴庆区文化东街122号",
      "city": "银川市",
      "state": "宁夏回族自治区",
      "country": "中国",
      "phone": "0951-6026619,13007960066",
      "email": null,
      "website": null,
      "latitude": 38.473516,
      "longitude": 106.28967,
      "sourceContinent": "Asia",
      "sourceRegionCode": "CN"
    },
    {
      "kind": "retail_store",
      "name": "DJI大疆授权体验店(嘉兴八佰伴)",
      "address": "浙江省嘉兴市南湖区中山路1360号八佰伴购物中心一层L1080铺位",
      "city": "嘉兴市",
      "state": "浙江省",
      "country": "中国",
      "phone": "0573-82825986,18067815263",
      "email": null,
      "website": null,
      "latitude": 30.758414,
      "longitude": 120.73284,
      "sourceContinent": "Asia",
      "sourceRegionCode": "CN"
    },
    {
      "kind": "retail_store",
      "name": "DJI大疆授权体验店(武汉金银潭永旺梦乐城)",
      "address": "湖北省武汉市东西湖区金银潭大道1号永旺梦乐城一层134铺位",
      "city": "武汉市",
      "state": "湖北省",
      "country": "中国",
      "phone": "027-85620220",
      "email": null,
      "website": null,
      "latitude": 30.66226,
      "longitude": 114.25951,
      "sourceContinent": "Asia",
      "sourceRegionCode": "CN"
    },
    {
      "kind": "retail_store",
      "name": "DJI大疆授权体验店(深圳益田假日)",
      "address": "广东省深圳市南山区沙河街道华夏街社区深南大道9028号益田假日广场B1-36",
      "city": "深圳市",
      "state": "广东省",
      "country": "中国",
      "phone": "0755-86545054,19926693195",
      "email": null,
      "website": null,
      "latitude": 22.536973,
      "longitude": 113.975542,
      "sourceContinent": "Asia",
      "sourceRegionCode": "CN"
    },
    {
      "kind": "retail_store",
      "name": "DJI大疆授权体验店(汕头万象城)",
      "address": "广东省汕头市龙湖区华润万象城一层大疆L163,L164",
      "city": "汕头市",
      "state": "广东省",
      "country": "中国",
      "phone": "18033389078",
      "email": null,
      "website": null,
      "latitude": 30.650722,
      "longitude": 104.11511,
      "sourceContinent": "Asia",
      "sourceRegionCode": "CN"
    },
    {
      "kind": "retail_store",
      "name": "DJI大疆授权体验店(长沙洋湖京东MALL)",
      "address": "湖南省长沙市岳麓区洋湖街道景园路376号一楼大疆",
      "city": "长沙市",
      "state": "湖南省",
      "country": "中国",
      "phone": "19097547846",
      "email": "2671195799@qq.com",
      "website": null,
      "latitude": 28.118651,
      "longitude": 112.934984,
      "sourceContinent": "Asia",
      "sourceRegionCode": "CN"
    },
    {
      "kind": "retail_store",
      "name": "DJI大疆授权体验店(上海百联中环购物广场)",
      "address": "上海市普陀区真光路1288号L1-0112铺位",
      "city": "上海市",
      "state": "上海市",
      "country": "中国",
      "phone": "16601805649",
      "email": "diaosiman@mc2.cn",
      "website": null,
      "latitude": 31.25,
      "longitude": 121.39,
      "sourceContinent": "Asia",
      "sourceRegionCode": "CN"
    },
    {
      "kind": "retail_store",
      "name": "DJI大疆授权体验店(北京华贸)",
      "address": "北京市朝阳区建国路79号华贸购物中心1层L124",
      "city": "北京市",
      "state": "北京市",
      "country": "中国",
      "phone": "17338157915",
      "email": null,
      "website": null,
      "latitude": 39.908904,
      "longitude": 116.476429,
      "sourceContinent": "Asia",
      "sourceRegionCode": "CN"
    },
    {
      "kind": "retail_store",
      "name": "DJI大疆授权体验店(北京王府井APM)",
      "address": "北京市东城区王府井大街138号apm购物中心B区L205",
      "city": "北京市",
      "state": "北京市",
      "country": "中国",
      "phone": "13021273012",
      "email": null,
      "website": null,
      "latitude": 39.914466,
      "longitude": 116.411713,
      "sourceContinent": "Asia",
      "sourceRegionCode": "CN"
    },
    {
      "kind": "retail_store",
      "name": "DJI大疆授权体验店(海口龙湖天街)",
      "address": "海口市龙华区南海大道15号海口天街B-1F-11室",
      "city": "海口市",
      "state": "海南省",
      "country": "中国",
      "phone": "19189896201",
      "email": null,
      "website": null,
      "latitude": 19.997067,
      "longitude": 110.328923,
      "sourceContinent": "Asia",
      "sourceRegionCode": "CN"
    },
    {
      "kind": "retail_store",
      "name": "DJI大疆专区专柜(潍坊阳光100城市广场店)",
      "address": "山东省潍坊市奎文区胜利东街阳光100城市广场1号楼103",
      "city": "潍坊市",
      "state": "山东省",
      "country": "中国",
      "phone": "0536-8100021;13573605174",
      "email": null,
      "website": null,
      "latitude": 36.713409,
      "longitude": 119.130429,
      "sourceContinent": "Asia",
      "sourceRegionCode": "CN"
    },
    {
      "kind": "retail_store",
      "name": "DJI大疆授权体验店(重庆悦荟购物中心)",
      "address": "重庆市江北区悦荟购物中心3号门旁",
      "city": "重庆市",
      "state": "重庆市",
      "country": "中国",
      "phone": "023-67100361,15017003255",
      "email": null,
      "website": null,
      "latitude": 29.571733,
      "longitude": 106.547764,
      "sourceContinent": "Asia",
      "sourceRegionCode": "CN"
    },
    {
      "kind": "retail_store",
      "name": "DJI大疆授权体验店(洛阳大卫天地)",
      "address": "洛阳市西工区中州路与解放路交叉口427号大卫天地1F-40",
      "city": "洛阳市",
      "state": "河南省",
      "country": "中国",
      "phone": "18838831293",
      "email": null,
      "website": null,
      "latitude": 34.662974,
      "longitude": 112.430181,
      "sourceContinent": "Asia",
      "sourceRegionCode": "CN"
    },
    {
      "kind": "retail_store",
      "name": "DJI大疆授权体验店(红河蒙自南湖荟)",
      "address": "云南省红河哈尼族彝族自治州蒙自市南湖南路9号南湖荟Mall内A-F1-138、139",
      "city": "红河哈尼族彝族自治州",
      "state": "云南省",
      "country": "中国",
      "phone": "18810806891",
      "email": "757769958@qq.com",
      "website": null,
      "latitude": 23.01,
      "longitude": 103.13,
      "sourceContinent": "Asia",
      "sourceRegionCode": "CN"
    },
    {
      "kind": "retail_store",
      "name": "DJI大疆专区SIS店(驻马店解放大道店)",
      "address": "河南省驻马店市驿城区解放大道人民派出所正对面",
      "city": "驻马店市",
      "state": "河南省",
      "country": "中国",
      "phone": "0396-2986899,15890824291",
      "email": "434894068@qq.com",
      "website": null,
      "latitude": 32.976114,
      "longitude": 114.028114,
      "sourceContinent": "Asia",
      "sourceRegionCode": "CN"
    },
    {
      "kind": "retail_store",
      "name": "DJI大疆授权专卖店(上海市森兰湾店)",
      "address": "上海市浦东新区高行镇启帆路800弄11号楼一楼102室",
      "city": "上海市",
      "state": "上海市",
      "country": "中国",
      "phone": "18616111101",
      "email": "371099393@qq.com",
      "website": null,
      "latitude": 31.184347,
      "longitude": 121.353673,
      "sourceContinent": "Asia",
      "sourceRegionCode": "CN"
    },
    {
      "kind": "retail_store",
      "name": "DJI大疆授权体验店(苏州常熟永旺)",
      "address": "江苏省苏州市常熟市东南大道168号永旺梦乐城1楼131-133铺位大疆",
      "city": "苏州市",
      "state": "江苏省",
      "country": "中国",
      "phone": "19962899833",
      "email": "zhangchenxi@feishangkeji.cn",
      "website": null,
      "latitude": 31.601151,
      "longitude": 120.777205,
      "sourceContinent": "Asia",
      "sourceRegionCode": "CN"
    },
    {
      "kind": "retail_store",
      "name": "DJI大疆授权专卖店(沈阳市百脑汇今恒翔店)",
      "address": "辽宁省沈阳市和平区三好街百脑汇一楼1B01（正门门市）",
      "city": "沈阳市",
      "state": "辽宁省",
      "country": "中国",
      "phone": "13804998546",
      "email": "85998774@qq.com",
      "website": null,
      "latitude": 41.765144,
      "longitude": 123.42717,
      "sourceContinent": "Asia",
      "sourceRegionCode": "CN"
    },
    {
      "kind": "retail_store",
      "name": "DJI大疆专区SIS店(曲靖博泰寥廓北路店)",
      "address": "云南省曲靖市麒麟区寥廓北路168-15",
      "city": "曲靖市",
      "state": "云南省",
      "country": "中国",
      "phone": "13769668193",
      "email": "921875759@qq.com",
      "website": null,
      "latitude": 25.511348,
      "longitude": 103.789632,
      "sourceContinent": "Asia",
      "sourceRegionCode": "CN"
    },
    {
      "kind": "retail_store",
      "name": "DJI大疆授权体验店(扬州万象汇)",
      "address": "扬州市邗江区文昌中路606号万象汇1楼L133号",
      "city": "扬州市",
      "state": "江苏省",
      "country": "中国",
      "phone": "19351836889",
      "email": null,
      "website": null,
      "latitude": 32.400945,
      "longitude": 32.400945,
      "sourceContinent": "Asia",
      "sourceRegionCode": "CN"
    },
    {
      "kind": "retail_store",
      "name": "DJI大疆授权体验店(上海太阳宫)",
      "address": "上海市虹口区瑞虹路181号瑞虹天地太阳宫L1-55铺位",
      "city": "上海市",
      "state": "上海市",
      "country": "中国",
      "phone": "021-55382007",
      "email": null,
      "website": null,
      "latitude": 31.263287,
      "longitude": 121.500251,
      "sourceContinent": "Asia",
      "sourceRegionCode": "CN"
    },
    {
      "kind": "retail_store",
      "name": "DJI大疆授权专卖店(郑州保利久街店)",
      "address": "河南省郑州市中原区中原路与华山路交叉口（地铁D口）保利久街一楼6-108",
      "city": "郑州市",
      "state": "河南省",
      "country": "中国",
      "phone": "13598823158",
      "email": "617080967@qq.com",
      "website": null,
      "latitude": 34.753919,
      "longitude": 113.605832,
      "sourceContinent": "Asia",
      "sourceRegionCode": "CN"
    },
    {
      "kind": "retail_store",
      "name": "DJI大疆授权体验店(青岛凯德广场)",
      "address": "山东省青岛市市北区黑龙江南路18号凯德MALL新都心1层14号",
      "city": "青岛市",
      "state": "山东省",
      "country": "中国",
      "phone": "15898848565",
      "email": "61156824@qq.com",
      "website": null,
      "latitude": 36.11999,
      "longitude": 120.40246,
      "sourceContinent": "Asia",
      "sourceRegionCode": "CN"
    },
    {
      "kind": "retail_store",
      "name": "DJI大疆授权体验店(成都龙湖金楠天街)",
      "address": "四川省成都市武侯区龙湖金楠天街B馆-1F-06号商铺",
      "city": "成都市",
      "state": "四川省",
      "country": "中国",
      "phone": "19136258168",
      "email": "19136258168@189.cn",
      "website": null,
      "latitude": 30.65,
      "longitude": 104,
      "sourceContinent": "Asia",
      "sourceRegionCode": "CN"
    },
    {
      "kind": "retail_store",
      "name": "DJI大疆授权体验店(武汉汉街)",
      "address": "湖北省武汉市武昌区汉街第三街区J4-2-10A，J4-2-10B号商铺",
      "city": "武汉市",
      "state": "湖北省",
      "country": "中国",
      "phone": "18971603751；027-87811286",
      "email": null,
      "website": null,
      "latitude": 30.556927,
      "longitude": 114.34125,
      "sourceContinent": "Asia",
      "sourceRegionCode": "CN"
    },
    {
      "kind": "retail_store",
      "name": "DJI大疆授权体验店(温州龙湾万达)",
      "address": "浙江省温州市龙湾区永中街道永定路1188号1F1008铺位",
      "city": "温州市",
      "state": "浙江省",
      "country": "中国",
      "phone": "19706883048",
      "email": "1772422081@qq.com",
      "website": null,
      "latitude": 27.91962,
      "longitude": 120.810509,
      "sourceContinent": "Asia",
      "sourceRegionCode": "CN"
    },
    {
      "kind": "retail_store",
      "name": "DJI大疆授权体验店(广州正佳广场)",
      "address": "广州市天河区天河路228号正佳广场1楼1B065-66",
      "city": "广州市",
      "state": "广东省",
      "country": "中国",
      "phone": "020-38814584,19124257282",
      "email": "xujiahua@hengweixin.com.cn",
      "website": null,
      "latitude": 23.138477,
      "longitude": 113.333637,
      "sourceContinent": "Asia",
      "sourceRegionCode": "CN"
    },
    {
      "kind": "retail_store",
      "name": "DJI大疆专区SIS店(鄂尔多斯市达拉特南路店)",
      "address": "鄂尔多斯市东胜区达拉特南路3号附5号",
      "city": "鄂尔多斯市",
      "state": "内蒙古自治区",
      "country": "中国",
      "phone": "15149668866",
      "email": null,
      "website": null,
      "latitude": 39.809564,
      "longitude": 110.0043,
      "sourceContinent": "Asia",
      "sourceRegionCode": "CN"
    },
    {
      "kind": "retail_store",
      "name": "DJI大疆授权体验店(福州万象城)",
      "address": "福州市鼓楼区洪山镇洪山园路五号福州万象城5层L527",
      "city": "福州市",
      "state": "福建省",
      "country": "中国",
      "phone": "18349391640",
      "email": null,
      "website": null,
      "latitude": 26.063545,
      "longitude": 119.291269,
      "sourceContinent": "Asia",
      "sourceRegionCode": "CN"
    },
    {
      "kind": "retail_store",
      "name": "DJI大疆授权体验店(上海虹桥南丰城)",
      "address": "上海市长宁区遵义路100号虹桥南丰城商场北区1楼L115",
      "city": "上海市",
      "state": "上海市",
      "country": "中国",
      "phone": "021-52996782",
      "email": null,
      "website": null,
      "latitude": 31.207699,
      "longitude": 121.407103,
      "sourceContinent": "Asia",
      "sourceRegionCode": "CN"
    },
    {
      "kind": "retail_store",
      "name": "DJI大疆授权体验店(太原天美新天地)",
      "address": "太原市小店区长风街天美新天地5层东北角",
      "city": "太原市",
      "state": "山西省",
      "country": "中国",
      "phone": "15536329056",
      "email": null,
      "website": null,
      "latitude": 37.819489,
      "longitude": 112.564309,
      "sourceContinent": "Asia",
      "sourceRegionCode": "CN"
    },
    {
      "kind": "retail_store",
      "name": "DJI大疆授权体验店(成都龙湖锦宸天街)",
      "address": "四川省成都市新都区大丰街道大天路699号龙湖锦宸天街A馆-1F-52",
      "city": "成都市",
      "state": "四川省",
      "country": "中国",
      "phone": "19136238168",
      "email": "19136238168@189.cn",
      "website": null,
      "latitude": 30.76,
      "longitude": 104.07,
      "sourceContinent": "Asia",
      "sourceRegionCode": "CN"
    },
    {
      "kind": "retail_store",
      "name": "DJI大疆授权专卖店(贵阳中华南路店)",
      "address": "贵阳市南明区中华南路149号中都大厦一层2至4轴",
      "city": "贵阳市",
      "state": "贵州省",
      "country": "中国",
      "phone": "18985116385",
      "email": null,
      "website": null,
      "latitude": 26.574159,
      "longitude": 106.712299,
      "sourceContinent": "Asia",
      "sourceRegionCode": "CN"
    },
    {
      "kind": "retail_store",
      "name": "DJI大疆授权体验店(深圳海雅缤纷城)",
      "address": "深圳市宝安区宝城5区宝民路海雅缤纷城第一层1S32-1S33号商铺",
      "city": "深圳市",
      "state": "广东省",
      "country": "中国",
      "phone": "0755-23095174,19926584330",
      "email": null,
      "website": null,
      "latitude": 22.567268,
      "longitude": 113.901413,
      "sourceContinent": "Asia",
      "sourceRegionCode": "CN"
    },
    {
      "kind": "retail_store",
      "name": "DJI大疆专区SIS店(哈尔滨教化电子城百润店)",
      "address": "黑龙江省哈尔滨市南岗区松花江街139号教化广场2楼2F-88号",
      "city": "哈尔滨市",
      "state": "黑龙江省",
      "country": "中国",
      "phone": "13766890945",
      "email": "77730978@qq.com",
      "website": null,
      "latitude": 45.747653,
      "longitude": 126.630304,
      "sourceContinent": "Asia",
      "sourceRegionCode": "CN"
    },
    {
      "kind": "retail_store",
      "name": "DJI大疆授权专卖店(扬州航空谷店)",
      "address": "江苏省扬州市广陵区航空谷科创研发中心星航荟",
      "city": "扬州市",
      "state": "江苏省",
      "country": "中国",
      "phone": "17751383807",
      "email": "1165343531@qq.com",
      "website": null,
      "latitude": 32.405092,
      "longitude": 119.555848,
      "sourceContinent": "Asia",
      "sourceRegionCode": "CN"
    },
    {
      "kind": "retail_store",
      "name": "DJI大疆专区SIS店(西安大都荟店)",
      "address": "陕西省西安市雁塔区高新四路139号大都荟本地书馆2楼（DJI大疆授权店）",
      "city": "西安市",
      "state": "陕西省",
      "country": "中国",
      "phone": "15399085729",
      "email": "1305282739@qq.com",
      "website": null,
      "latitude": 34.24385,
      "longitude": 108.89979,
      "sourceContinent": "Asia",
      "sourceRegionCode": "CN"
    },
    {
      "kind": "retail_store",
      "name": "DJI大疆专区SIS店(深圳华强北电子世界泽艺达)",
      "address": "深圳市福田区华强广场华强电子世界2店2楼HQ022",
      "city": "深圳市",
      "state": "广东省",
      "country": "中国",
      "phone": "0755-82798566；13510151359",
      "email": null,
      "website": null,
      "latitude": 22.54,
      "longitude": 114.09,
      "sourceContinent": "Asia",
      "sourceRegionCode": "CN"
    },
    {
      "kind": "retail_store",
      "name": "DJI大疆专区SIS店(合肥汇云大厦店)",
      "address": "包河区黄山路与宿松路交口汇云大厦一楼",
      "city": "合肥市",
      "state": "安徽省",
      "country": "中国",
      "phone": "0551-62612911,18919667590",
      "email": "95420561@qq.com",
      "website": null,
      "latitude": 31.848294,
      "longitude": 117.279287,
      "sourceContinent": "Asia",
      "sourceRegionCode": "CN"
    },
    {
      "kind": "retail_store",
      "name": "DJI大疆授权体验店(珠海环宇城)",
      "address": "广东省珠海市香洲区前河北路96号(近前山总站)环宇城L1-157C",
      "city": "珠海市",
      "state": "广东省",
      "country": "中国",
      "phone": "18902532306",
      "email": "704180473@qq.com",
      "website": null,
      "latitude": 22.240903,
      "longitude": 113.530814,
      "sourceContinent": "Asia",
      "sourceRegionCode": "CN"
    },
    {
      "kind": "retail_store",
      "name": "DJI大疆专区专柜(长沙科佳摄影城店)",
      "address": "湖南省长沙市赛格数码广场一楼1B03号",
      "city": "长沙市",
      "state": "湖南省",
      "country": "中国",
      "phone": "13574124796",
      "email": "2226339849@qq.com",
      "website": null,
      "latitude": 39.897445,
      "longitude": 116.331398,
      "sourceContinent": "Asia",
      "sourceRegionCode": "CN"
    },
    {
      "kind": "retail_store",
      "name": "DJI大疆授权专卖店(福州市大利嘉福莱店)",
      "address": "福州市台江区五一中路169号大利嘉A1-2",
      "city": "福州市",
      "state": "福建省",
      "country": "中国",
      "phone": "0591-83355614",
      "email": null,
      "website": null,
      "latitude": 26.068324,
      "longitude": 119.313596,
      "sourceContinent": "Asia",
      "sourceRegionCode": "CN"
    },
    {
      "kind": "retail_store",
      "name": "DJI大疆哈苏概念店(长春卓展)",
      "address": "吉林省长春市朝阳区重庆路1255号 长春卓展购物中心（2B-215）",
      "city": "长春市",
      "state": "吉林省",
      "country": "中国",
      "phone": "15543454551",
      "email": null,
      "website": null,
      "latitude": 43.890612,
      "longitude": 125.3197,
      "sourceContinent": "Asia",
      "sourceRegionCode": "CN"
    },
    {
      "kind": "retail_store",
      "name": "DJI大疆专区SIS店(南京新工产业园店)",
      "address": "江苏省南京市玄武区珠江路680号新工产业园101",
      "city": "南京市",
      "state": "江苏省",
      "country": "中国",
      "phone": "17368718987",
      "email": "levy_0212@126.com",
      "website": null,
      "latitude": 32.053338,
      "longitude": 118.809817,
      "sourceContinent": "Asia",
      "sourceRegionCode": "CN"
    },
    {
      "kind": "retail_store",
      "name": "DJI大疆授权体验店(武汉宜家荟聚)",
      "address": "湖北省武汉市硚口区园博大道1号武汉荟聚中心02B04铺位",
      "city": "武汉市",
      "state": "湖北省",
      "country": "中国",
      "phone": "027-83237580",
      "email": null,
      "website": null,
      "latitude": 30.616706,
      "longitude": 114.166393,
      "sourceContinent": "Asia",
      "sourceRegionCode": "CN"
    },
    {
      "kind": "retail_store",
      "name": "DJI大疆授权体验店(上海周浦万达)",
      "address": "上海市浦东新区年家浜路518号周浦万达商场L112铺位",
      "city": "上海市",
      "state": "上海市",
      "country": "中国",
      "phone": "021-20942880",
      "email": null,
      "website": null,
      "latitude": 31.11428,
      "longitude": 121.569053,
      "sourceContinent": "Asia",
      "sourceRegionCode": "CN"
    },
    {
      "kind": "retail_store",
      "name": "DJI大疆授权体验店(成都金牛凯德)",
      "address": "四川省成都市金牛区交大路183号凯德广场金牛01层91号",
      "city": "成都市",
      "state": "四川省",
      "country": "中国",
      "phone": "19150357816",
      "email": "19150357816@qq.com",
      "website": null,
      "latitude": 39.94,
      "longitude": 116.43,
      "sourceContinent": "Asia",
      "sourceRegionCode": "CN"
    },
    {
      "kind": "retail_store",
      "name": "DJI大疆授权体验店(桂林高新万达)",
      "address": "广西壮族自治区桂林市七星区穿山东路43号高新万达广场1楼1号门1002店铺",
      "city": "桂林市",
      "state": "广西壮族自治区",
      "country": "中国",
      "phone": "0773-2994563,19144346810",
      "email": "563838137@qq.com",
      "website": null,
      "latitude": 25.247414,
      "longitude": 110.326356,
      "sourceContinent": "Asia",
      "sourceRegionCode": "CN"
    },
    {
      "kind": "retail_store",
      "name": "DJI大疆授权体验店(盐城聚龙湖金鹰)",
      "address": "江苏省盐城市盐都区新都街道268号盐城聚龙湖金鹰购物中心一楼A-F1138",
      "city": "盐城市",
      "state": "江苏省",
      "country": "中国",
      "phone": "13365197685",
      "email": null,
      "website": null,
      "latitude": 33.339817,
      "longitude": 120.163692,
      "sourceContinent": "Asia",
      "sourceRegionCode": "CN"
    },
    {
      "kind": "retail_store",
      "name": "DJI大疆授权专卖店(西安百瑞未来广场店)",
      "address": "雁塔路中段58号百瑞未来城一楼A-1-13",
      "city": "西安市",
      "state": "陕西省",
      "country": "中国",
      "phone": "15389189838",
      "email": null,
      "website": null,
      "latitude": 34.232886,
      "longitude": 108.963372,
      "sourceContinent": "Asia",
      "sourceRegionCode": "CN"
    },
    {
      "kind": "retail_store",
      "name": "DJI大疆授权体验店(昆明万象城)",
      "address": "云南省昆明市官渡区环城南路1号昆明万象城B108商铺",
      "city": "昆明市",
      "state": "云南省",
      "country": "中国",
      "phone": "0871-65836039",
      "email": null,
      "website": null,
      "latitude": 25.029693,
      "longitude": 102.734004,
      "sourceContinent": "Asia",
      "sourceRegionCode": "CN"
    },
    {
      "kind": "retail_store",
      "name": "DJI大疆授权体验店(青岛金狮广场)",
      "address": "山东省青岛市崂山区香港东路195号乙金狮广场1楼L1-01-2",
      "city": "青岛市",
      "state": "山东省",
      "country": "中国",
      "phone": "18661759105",
      "email": null,
      "website": null,
      "latitude": 36.095621,
      "longitude": 120.463981,
      "sourceContinent": "Asia",
      "sourceRegionCode": "CN"
    },
    {
      "kind": "retail_store",
      "name": "DJI大疆授权体验店(东莞滨海湾购物村)",
      "address": "广东省东莞市长安镇滨海湾新区万象滨海购物新村 L111店铺大疆店",
      "city": "东莞市",
      "state": "广东省",
      "country": "中国",
      "phone": "18038461153",
      "email": "384406135@qq.com",
      "website": null,
      "latitude": 22.76,
      "longitude": 113.746,
      "sourceContinent": "Asia",
      "sourceRegionCode": "CN"
    },
    {
      "kind": "retail_store",
      "name": "DJI大疆授权体验店(百色爱琴海)",
      "address": "广西百色市右江区百林桥头南爱琴海购物公园1楼1号门入口",
      "city": "百色市",
      "state": "广西壮族自治区",
      "country": "中国",
      "phone": "17777666725",
      "email": "1282160448@qq.com",
      "website": null,
      "latitude": 23.877321,
      "longitude": 106.605322,
      "sourceContinent": "Asia",
      "sourceRegionCode": "CN"
    },
    {
      "kind": "retail_store",
      "name": "DJI大疆哈苏概念店(武汉武商MALL)",
      "address": "湖北省武汉市江汉区解放大道690号武商MALL商场C座3楼C3-5铺位",
      "city": "武汉市",
      "state": "湖北省",
      "country": "中国",
      "phone": "15927441545",
      "email": null,
      "website": null,
      "latitude": 30.58003,
      "longitude": 114.27034,
      "sourceContinent": "Asia",
      "sourceRegionCode": "CN"
    },
    {
      "kind": "retail_store",
      "name": "DJI大疆授权体验店(常州新北万达)",
      "address": "江苏省常州市新北区通江中路 88 号新北万达广场1F1020-2,1021",
      "city": "常州市",
      "state": "江苏省",
      "country": "中国",
      "phone": "13645191345",
      "email": "zhanghang@feishangkeji.cn",
      "website": null,
      "latitude": 31.821058,
      "longitude": 119.965347,
      "sourceContinent": "Asia",
      "sourceRegionCode": "CN"
    },
    {
      "kind": "retail_store",
      "name": "DJI授权体验店(成都凯德魅力城授权体验店)",
      "address": "四川省成都市成华区万科路9号凯德魅力城 01层01-03铺",
      "city": "成都市",
      "state": "四川省",
      "country": "中国",
      "phone": "13232262373",
      "email": "599010324@qq.com",
      "website": null,
      "latitude": 30.3744,
      "longitude": 104.92,
      "sourceContinent": "Asia",
      "sourceRegionCode": "CN"
    },
    {
      "kind": "retail_store",
      "name": "DJI大疆授权体验店(渭南吾悦广场)",
      "address": "陕西省渭南市临渭区仓程路与西华街十字西北角吾悦广场1层1001-2",
      "city": "渭南市",
      "state": "陕西省",
      "country": "中国",
      "phone": "19991637702",
      "email": "19991637702@189.com",
      "website": null,
      "latitude": 34.51,
      "longitude": 109.47,
      "sourceContinent": "Asia",
      "sourceRegionCode": "CN"
    },
    {
      "kind": "retail_store",
      "name": "DJI大疆授权体验店(烟台万象汇)",
      "address": "山东省烟台市莱山区观海路228号烟台万象汇1层L173",
      "city": "烟台市",
      "state": "山东省",
      "country": "中国",
      "phone": "0535-6776728",
      "email": null,
      "website": null,
      "latitude": 37.475838,
      "longitude": 121.44753,
      "sourceContinent": "Asia",
      "sourceRegionCode": "CN"
    },
    {
      "kind": "retail_store",
      "name": "DJI大疆授权体验店(揭阳榕城万达)",
      "address": "广场省揭阳市榕城区临江南路万达广场一层1055,1056号",
      "city": "揭阳市",
      "state": "广东省",
      "country": "中国",
      "phone": "13326737859",
      "email": "941664209@qq.com",
      "website": null,
      "latitude": 23.561022,
      "longitude": 116.396419,
      "sourceContinent": "Asia",
      "sourceRegionCode": "CN"
    },
    {
      "kind": "retail_store",
      "name": "DJI大疆授权体验店(武汉武商众圆)",
      "address": "湖北省武汉市青山区和平大道959号武商众圆广场L1-060铺位",
      "city": "武汉市",
      "state": "湖北省",
      "country": "中国",
      "phone": "17740666107,027-86523450",
      "email": "shenbowen@mc2.cn",
      "website": null,
      "latitude": 30.626839,
      "longitude": 114.377063,
      "sourceContinent": "Asia",
      "sourceRegionCode": "CN"
    },
    {
      "kind": "retail_store",
      "name": "DJI大疆授权体验店(鄂尔多斯万达)",
      "address": "内蒙古鄂尔多斯市东胜区鄂托克西街30号万达广场1层",
      "city": "鄂尔多斯市",
      "state": "内蒙古自治区",
      "country": "中国",
      "phone": "17704771635",
      "email": "564433975@qq.com",
      "website": null,
      "latitude": 39.82083,
      "longitude": 109.9819,
      "sourceContinent": "Asia",
      "sourceRegionCode": "CN"
    },
    {
      "kind": "retail_store",
      "name": "DJI大疆授权体验店(肇庆敏捷广场)",
      "address": "肇庆市端州区信安大道与砚都大道交叉肇庆敏捷广场1楼1023大疆",
      "city": "肇庆市",
      "state": "广东省",
      "country": "中国",
      "phone": "17322944585",
      "email": null,
      "website": null,
      "latitude": 23.080396,
      "longitude": 112.509018,
      "sourceContinent": "Asia",
      "sourceRegionCode": "CN"
    },
    {
      "kind": "retail_store",
      "name": "DJI大疆授权体验店(西安大明宫万达)",
      "address": "西安市未央区太华北路369号西安大明宫万达广场1F层1035号",
      "city": "西安市",
      "state": "陕西省",
      "country": "中国",
      "phone": "15353675501",
      "email": "15353675501@189.com",
      "website": null,
      "latitude": 34.32,
      "longitude": 108.97,
      "sourceContinent": "Asia",
      "sourceRegionCode": "CN"
    },
    {
      "kind": "retail_store",
      "name": "DJI大疆授权体验店(苏州太仓万达)",
      "address": "江苏省苏州市太仓市上海东路188号万达广场一层1026号大疆",
      "city": "苏州市",
      "state": "江苏省",
      "country": "中国",
      "phone": "17715585118",
      "email": "3996462741@qq.com",
      "website": null,
      "latitude": 31.459882,
      "longitude": 121.139112,
      "sourceContinent": "Asia",
      "sourceRegionCode": "CN"
    },
    {
      "kind": "retail_store",
      "name": "DJI大疆哈苏概念店(深圳深圳湾万象城)",
      "address": "广东省深圳市南山区海德一道1218号深圳湾万象城D区B1层DB139",
      "city": "深圳市",
      "state": "广东省",
      "country": "中国",
      "phone": "0755-22672509,18128857925",
      "email": "liuli@hengweixin.com.cn",
      "website": null,
      "latitude": 22.52052,
      "longitude": 113.95045,
      "sourceContinent": "Asia",
      "sourceRegionCode": "CN"
    },
    {
      "kind": "retail_store",
      "name": "DJI大疆授权体验店(深圳后浪新天地)",
      "address": "深圳市龙华区大浪街道同胜社区同富裕工业园第9栋第1层编号HLS09L1044",
      "city": "深圳市",
      "state": "广东省",
      "country": "中国",
      "phone": "18128126644",
      "email": "792189138@qq.com",
      "website": null,
      "latitude": 22.677642,
      "longitude": 113.99052,
      "sourceContinent": "Asia",
      "sourceRegionCode": "CN"
    },
    {
      "kind": "retail_store",
      "name": "DJI大疆授权体验店(上海七宝领展)",
      "address": "上海市闵行区漕宝路3366号七宝领展B136A-B136C店铺",
      "city": "上海市",
      "state": "上海市",
      "country": "中国",
      "phone": "021-64195791,13120659632",
      "email": null,
      "website": null,
      "latitude": 31.15536,
      "longitude": 121.350757,
      "sourceContinent": "Asia",
      "sourceRegionCode": "CN"
    },
    {
      "kind": "retail_store",
      "name": "DJI大疆专区SIS店(济南泉城广场店)",
      "address": "南门大街2号泉城大酒店北侧金焦点摄影器材",
      "city": "济南市",
      "state": "山东省",
      "country": "中国",
      "phone": "18605312361",
      "email": null,
      "website": null,
      "latitude": 36.661747,
      "longitude": 117.021233,
      "sourceContinent": "Asia",
      "sourceRegionCode": "CN"
    },
    {
      "kind": "retail_store",
      "name": "DJI大疆专区SIS店(台州市银座街店)",
      "address": "台州市路桥区银座街530号",
      "city": "台州市",
      "state": "浙江省",
      "country": "中国",
      "phone": "15167678080",
      "email": "280781952@qq.com",
      "website": null,
      "latitude": 28.580032,
      "longitude": 121.3772,
      "sourceContinent": "Asia",
      "sourceRegionCode": "CN"
    },
    {
      "kind": "retail_store",
      "name": "DJI大疆授权专卖店(杭州百脑汇店)",
      "address": "浙江省杭州市西湖区教工路23号百脑汇一楼1G01-1D02",
      "city": "杭州市",
      "state": "浙江省",
      "country": "中国",
      "phone": "0571-56762259,18658162003,18657111033",
      "email": null,
      "website": null,
      "latitude": 30.28065,
      "longitude": 120.142373,
      "sourceContinent": "Asia",
      "sourceRegionCode": "CN"
    },
    {
      "kind": "retail_store",
      "name": "DJI大疆授权体验店(西安南门王府井)",
      "address": "西安市碑林区南关正街88号王府井百货2幢10101室南馆1层1A02-1",
      "city": "西安市",
      "state": "陕西省",
      "country": "中国",
      "phone": "13389229572",
      "email": "13389229572@163.com",
      "website": null,
      "latitude": 34.25,
      "longitude": 108.95,
      "sourceContinent": "Asia",
      "sourceRegionCode": "CN"
    },
    {
      "kind": "retail_store",
      "name": "DJI大疆授权专卖店(阿克苏市金兰广场店)",
      "address": "新疆维吾尔自治区阿克苏地区阿克苏市文化路金兰广场14栋106号",
      "city": "阿克苏地区",
      "state": "新疆维吾尔自治区",
      "country": "中国",
      "phone": "18502937295,15999295437,15299801382",
      "email": "1257302713@qq.com",
      "website": null,
      "latitude": 41.165514,
      "longitude": 80.282331,
      "sourceContinent": "Asia",
      "sourceRegionCode": "CN"
    },
    {
      "kind": "retail_store",
      "name": "DJI大疆授权体验店(沈阳铁西万象汇)",
      "address": "辽宁省沈阳市铁西区建设东路158号铁西万象汇B116大疆",
      "city": "沈阳市",
      "state": "辽宁省",
      "country": "中国",
      "phone": "13610714085",
      "email": "815185145@qq.com",
      "website": null,
      "latitude": 41.795633,
      "longitude": 123.372998,
      "sourceContinent": "Asia",
      "sourceRegionCode": "CN"
    },
    {
      "kind": "retail_store",
      "name": "DJI大疆授权体验店(广州云门NEW PARK)",
      "address": "广东省广州市白云区百顺北路1号云门NewPark L116B、116C",
      "city": "广州市",
      "state": "广东省",
      "country": "中国",
      "phone": "19927699486",
      "email": "329497738@qq.com",
      "website": null,
      "latitude": 23.2412,
      "longitude": 113.2857,
      "sourceContinent": "Asia",
      "sourceRegionCode": "CN"
    },
    {
      "kind": "retail_store",
      "name": "DJI大疆授权体验店(上海世博源)",
      "address": "上海市浦东新区世博大道1368号世博源3区B层3B36铺位",
      "city": "上海市",
      "state": "上海市",
      "country": "中国",
      "phone": "021-58200893",
      "email": null,
      "website": null,
      "latitude": 31.183631,
      "longitude": 121.49242,
      "sourceContinent": "Asia",
      "sourceRegionCode": "CN"
    },
    {
      "kind": "retail_store",
      "name": "DJI大疆授权体验店(石家庄裕华万达)",
      "address": "河北省石家庄裕华区槐安路123号万达广场一层1070，1071号",
      "city": "石家庄市",
      "state": "河北省",
      "country": "中国",
      "phone": "17333948555",
      "email": null,
      "website": null,
      "latitude": 38.023301,
      "longitude": 114.545643,
      "sourceContinent": "Asia",
      "sourceRegionCode": "CN"
    },
    {
      "kind": "retail_store",
      "name": "DJI大疆授权体验店(成都银泰in99)",
      "address": "四川省成都市高新区天府大道1199号（成都银泰in99）L1-L125号",
      "city": "成都市",
      "state": "四川省",
      "country": "中国",
      "phone": "19138921556",
      "email": "957922403@qq.com",
      "website": null,
      "latitude": 30.591119,
      "longitude": 104.075779,
      "sourceContinent": "Asia",
      "sourceRegionCode": "CN"
    },
    {
      "kind": "retail_store",
      "name": "DJI大疆专区店(太原市平阳路店)",
      "address": "山西省太原市小店区平阳路黄河京都南150米路西尼康店",
      "city": "太原市",
      "state": "山西省",
      "country": "中国",
      "phone": "0351-7555950;13834133640",
      "email": null,
      "website": null,
      "latitude": 37.84023,
      "longitude": 112.55863,
      "sourceContinent": "Asia",
      "sourceRegionCode": "CN"
    },